17:39:24.081 Connecting to UM980_C3_GPS ...
17:39:24.122 Connected
17:39:24.224 $GNGNS,143924.30,5945.34863017,N,03028.61598032,E,FFFFNN,18,0.7,49.6414,15.8763,,,S*1D
17:39:24.224 $GPGNS,143924.30,,,,,,06,,,,1.3,110,S*0C
17:39:24.225 $GLGNS,143924.30,,,,,,03,,,,1.3,110,S*15
17:39:24.225 $GAGNS,143924.30,,,,,,04,,,,1.3,110,S*1F
17:39:24.225 $GBGNS,143924.30,,,,,,05,,,,1.3,110,S*1D
17:39:24.225 $GNGGA,143924.30,5945.34863017,N,03028.61598032,E,5,18,0.7,49.6414,M,15.8763,M,1.3,110*50
17:39:24.291 $GNGNS,143924.40,5945.34862952,N,03028.61598263,E,FFFFNN,18,0.7,49.6441,15.8763,,,S*15
17:39:24.291 $GPGNS,143924.40,,,,,,06,,,,1.4,110,S*0C
17:39:24.308 $GLGNS,143924.40,,,,,,03,,,,1.4,110,S*15
17:39:24.308 $GAGNS,143924.40,,,,,,04,,,,1.4,110,S*1F
17:39:24.308 $GBGNS,143924.40,,,,,,05,,,,1.4,110,S*1D
17:39:24.308 $GNGGA,143924.40,5945.34862952,N,03028.61598263,E,5,18,0.7,49.6441,M,15.8763,M,1.4,110*5F
17:39:24.473 $GNGNS,143924.50,5945.34863046,N,03028.61598427,E,FFFFNN,18,0.7,49.6474,15.8763,,,S*19
17:39:24.473 $GPGNS,143924.50,,,,,,06,,,,1.5,110,S*0C
17:39:24.473 $GLGNS,143924.50,,,,,,03,,,,1.5,110,S*15
17:39:24.473 $GAGNS,143924.50,,,,,,04,,,,1.5,110,S*1F
17:39:24.473 $GBGNS,143924.50,,,,,,05,,,,1.5,110,S*1D
17:39:24.475 $GNGGA,143924.50,5945.34863046,N,03028.61598427,E,5,18,0.7,49.6474,M,15.8763,M,1.5,110*52
17:39:24.545 $GNGNS,143924.60,5945.34862839,N,03028.61598298,E,FFFFNN,18,0.7,49.6474,15.8763,,,S*19
17:39:24.545 $GPGNS,143924.60,,,,,,06,,,,1.6,110,S*0C
17:39:24.549 $GLGNS,143924.60,,,,,,03,,,,1.6,110,S*15
17:39:24.549 $GAGNS,143924.60,,,,,,04,,,,1.6,110,S*1F
17:39:24.549 $GBGNS,143924.60,,,,,,05,,,,1.6,110,S*1D
17:39:24.549 $GNGGA,143924.60,5945.34862839,N,03028.61598298,E,5,18,0.7,49.6474,M,15.8763,M,1.6,110*51
17:39:24.645 $GNGNS,143924.70,5945.34863061,N,03028.61598694,E,FFFFNN,18,0.7,49.6493,15.8763,,,S*1D
17:39:24.645 $GPGNS,143924.70,,,,,,06,,,,1.7,110,S*0C
17:39:24.647 $GLGNS,143924.70,,,,,,03,,,,1.7,110,S*15
17:39:24.647 $GAGNS,143924.70,,,,,,04,,,,1.7,110,S*1F
17:39:24.647 $GBGNS,143924.70,,,,,,05,,,,1.7,110,S*1D
17:39:24.647 $GNGGA,143924.70,5945.34863061,N,03028.61598694,E,5,18,0.7,49.6493,M,15.8763,M,1.7,110*54
17:39:24.717 $GNGNS,143924.80,5945.34862900,N,03028.61598173,E,FFFFNN,18,0.7,49.6549,15.8763,,,S*15
17:39:24.717 $GPGNS,143924.80,,,,,,06,,,,0.8,110,S*0D
17:39:24.717 $GLGNS,143924.80,,,,,,03,,,,0.8,110,S*14
17:39:24.717 $GAGNS,143924.80,,,,,,04,,,,0.8,110,S*1E
17:39:24.717 $GBGNS,143924.80,,,,,,05,,,,0.8,110,S*1C
17:39:24.717 $GNGGA,143924.80,5945.34862900,N,03028.61598173,E,5,18,0.7,49.6549,M,15.8763,M,0.8,110*52
17:39:24.795 $GNGNS,143924.90,5945.34862921,N,03028.61598465,E,FFFFNN,18,0.7,49.6511,15.8763,,,S*18
17:39:24.795 $GPGNS,143924.90,,,,,,06,,,,0.9,110,S*0D
17:39:24.802 $GLGNS,143924.90,,,,,,03,,,,0.9,110,S*14
17:39:24.802 $GAGNS,143924.90,,,,,,04,,,,0.9,110,S*1E
17:39:24.802 $GBGNS,143924.90,,,,,,05,,,,0.9,110,S*1C
17:39:24.802 $GNGGA,143924.90,5945.34862921,N,03028.61598465,E,5,18,0.7,49.6511,M,15.8763,M,0.9,110*5E
17:39:24.914 $GNDTM,W84,,0.0,N,0.0,E,0.0,W84*71
17:39:24.914 $GNRMC,143925.00,A,5945.34862902,N,03028.61598464,E,0.006,176.8,101025,11.7,E,F,C*74
17:39:24.915 $GNGNS,143925.00,5945.34862902,N,03028.61598464,E,FFFFNN,18,0.7,49.6517,15.8763,,,S*16
17:39:24.915 $GPGNS,143925.00,,,,,,06,,,,1.0,110,S*0D
17:39:24.915 $GLGNS,143925.00,,,,,,03,,,,1.0,110,S*14
17:39:24.915 $GAGNS,143925.00,,,,,,04,,,,1.0,110,S*1E
17:39:24.915 $GBGNS,143925.00,,,,,,05,,,,1.0,110,S*1C
17:39:24.915 $GNGGA,143925.00,5945.34862902,N,03028.61598464,E,5,18,0.7,49.6517,M,15.8763,M,1.0,110*58
17:39:24.915 $GNGLL,5945.34862902,N,03028.61598464,E,143925.00,A,D*7B
17:39:24.919 $GNGSA,M,3,15,23,13,19,24,02,,,,,,,1.6,0.7,1.4,1*33
17:39:24.919 $GNGSA,M,3,79,69,88,,,,,,,,,,1.6,0.7,1.4,2*3A
17:39:24.919 $GNGSA,M,3,07,08,30,10,,,,,,,,,1.6,0.7,1.4,3*37
17:39:24.919 $GNGSA,M,3,20,19,37,43,11,,,,,,,,1.6,0.7,1.4,4*34
17:39:24.935 $GPGSV,2,1,08,15,50,240,46,23,23,298,38,13,49,185,47,19,23,153,42,1*6A
17:39:24.935 $GPGSV,2,2,08,24,32,282,43,02,16,037,36,22,72,114,23,17,38,130,18,1*66
17:39:24.935 $GLGSV,2,1,05,79,61,258,46,69,55,242,47,78,60,064,28,88,19,102,25,2*7C
17:39:24.935 $GLGSV,2,2,05,68,20,191,29,2*40
17:39:24.935 $GBGSV,2,1,08,05,16,148,38,20,36,231,51,19,38,295,45,37,82,184,43,4*77
17:39:24.935 $GBGSV,2,2,08,34,15,026,26,43,28,079,31,11,25,049,35,09,15,102,24,4*7D
17:39:25.000 $GAGSV,2,1,07,14,,,41,07,53,283,45,08,50,185,44,30,35,217,46,3*48
17:39:25.000 $GAGSV,2,2,07,10,14,038,32,02,73,131,20,25,29,061,25,3*45
17:39:25.000 $GIGSV,1,1,01,02,43,149,35,6*44
17:39:25.000 $GNVTG,176.818,T,165.153,M,0.00583,N,0.01080,K,D*3B
17:39:25.000 $GNGST,143925.00,0.65,1.78,1.43,73.9407,1.462,1.752,2.721*72
17:39:25.000 $GNGRS,143925.00,0,0.1,1.9,0.2,0.3,0.5,7.0,,,,,,,1,1*53
17:39:25.026 $GNGRS,143925.00,0,0.2,4.6,0.6,0.4,0.3,,,,,,,,1,4*73
17:39:25.026 $GNGRS,143925.00,0,0.5,6.4,,,5.7,,,,,,,,1,6*75
17:39:25.026 $GNGRS,143925.00,0,,0.2,,,0.7,,,,,,,,1,8*55
17:39:25.026 $GNGRS,143925.00,0,,0.3,,,,,,,,,,,1,9*7C
17:39:25.026 $GNGRS,143925.00,0,0.1,0.3,7.5,,,,,,,,,,2,1*74
17:39:25.026 $GNGRS,143925.00,0,0.5,0.7,5.6,,,,,,,,,,2,3*77
17:39:25.026 $GNGRS,143925.00,0,,0.7,,,,,,,,,,,2,5*77
17:39:25.026 $GNGRS,143925.00,0,0.2,0.2,0.2,5.5,,,,,,,,,3,7*5F
17:39:25.030 $GNGRS,143925.00,0,0.1,0.1,0.1,0.7,,,,,,,,,3,1*5D
17:39:25.030 $GNGRS,143925.00,0,0.2,0.2,0.2,,,,,,,,,,3,2*74
17:39:25.030 $GNGRS,143925.00,0,0.1,0.2,0.3,1.2,,,,,,,,,3,5*5C
17:39:25.030 $GNGRS,143925.00,0,0.2,0.6,2.2,4.5,3.5,,,,,,,,4,1*71
17:39:25.030 $GNGRS,143925.00,0,,,,,2.0,,,,,,,,4,11*41
17:39:25.030 $GNGRS,143925.00,0,0.0,0.1,0.2,1.0,3.0,,,,,,,,4,8*7A
17:39:25.030 $GNGRS,143925.00,0,0.1,1.9,1.0,,,,,,,,,,4,3*78
17:39:25.044 $GNGRS,143925.00,0,0.1,0.2,1.5,1.2,,,,,,,,,4,5*5C
17:39:25.044 $GNGRS,143925.00,0,0.2,0.3,,,,,,,,,,,4,6*5A
17:39:25.044 $GNZDA,143925.00,10,10,2025,,*75
17:39:25.044 $GNGBS,143925.00,0.7,0.8,1.3,79,0.0,0.8,5.8,2,1*7C
17:39:25.044 #SATELLITEA,69,GPS,FINE,2387,484783000,0,0,18,25;GPS,TRUE,TRUE,8,2,0,16.3,37.3,0.000,0.000,13,0,49.9,185.2,0.000,0.000,15,0,50.6,240.9,0.000,0.000,17,0,38.5,130.7,0.000,0.000,19,0,23.2,153.4,0.000,0.000,22,0,72.4,114.3,0.000,0.000,23,0,23.7,298.6,0.000,0.000,24,0,32.7,282.5,0.000,0.000*92729f82
17:39:25.046 #SATELLITEA,69,GPS,FINE,2387,484783000,0,0,18,25;GLONASS,TRUE,TRUE,5,41+6,0,21.0,191.8,0.000,0.000,42+1,0,55.6,242.4,0.000,0.000,51-7,0,60.2,64.7,0.000,0.000,52,0,61.3,258.3,0.000,0.000,61+2,0,19.1,102.0,0.000,0.000*bed13b85
17:39:25.056 #SATELLITEA,69,GPS,FINE,2387,484783000,0,0,18,25;GALILEO,TRUE,TRUE,6,2,0,73.7,131.2,0.000,0.000,7,0,53.2,283.5,0.000,0.000,8,0,50.7,185.3,0.000,0.000,10,0,14.7,38.5,0.000,0.000,25,0,29.9,61.9,0.000,0.000,30,0,35.1,217.7,0.000,0.000*5d840d30
17:39:25.058 #SATELLITEA,69,GPS,FINE,2387,484783000,0,0,18,25;BEIDOU,TRUE,TRUE,8,5,0,16.1,148.7,0.000,0.000,9,0,15.8,102.2,0.000,0.000,11,0,25.6,49.0,0.000,0.000,19,0,38.3,295.4,0.000,0.000,20,0,36.4,231.9,0.000,0.000,34,0,15.6,26.2,0.000,0.000,37,0,82.3,184.4,0.000,0.000,43,0,28.7,80.0,0.000,0.000*386bc8b5
17:39:25.058 #SATELLITEA,69,GPS,FINE,2387,484783000,0,0,18,26;QZSS,TRUE,TRUE,0*67aff9f2
17:39:25.062 #SATELLITEA,69,GPS,FINE,2387,484783000,0,0,18,26;SBAS,TRUE,TRUE,0*ec387798
17:39:25.062 #SATELLITEA,69,GPS,FINE,2387,484783000,0,0,18,26;NAVIC,TRUE,TRUE,1,2,0,43.0,149.8,0.000,0.000*f5468718
17:39:25.062 #SATSINFOA,69,GPS,FINE,2387,484783000,0,0,18,26;28,2,0,0,0,63,15,241,51,0,46,0,3,0,41,17,3,0,43,9,3,23,299,24,0,38,0,5,0,35,17,5,0,38,14,5,0,37,3,5,0,29,9,5,13,185,50,0,47,0,2,0,37,9,2,19,153,23,0,42,0,2,0,36,9,2,24,282,33,0,43,0,4,0,33,17,4,0,41,14,4,0,39,9,4,2,37,16,0,36,0,1,22,114,72,0,23,0,1,17,131,38,0,18,0,2,0,19,17,2,52,258,61,1,46,0,2,1,43,5,2,42,242,56,1,47,0,3,1,43,5,3,1,37,7,3,51,65,60,1,28,0,1,61,102,19,1,25,0,2,1,30,5,2,41,192,21,1,29,0,2,1,28,5,2,5,149,16,4,38,0,3,4,40,17,3,4,39,21,3,20,232,36,4,51,0,5,4,48,21,5,4,48,8,5,4,45,12,5,4,41,13,5,19,295,38,4,45,0,5,4,42,21,5,4,41,8,5,4,40,12,5,4,37,13,5,37,184,82,4,43,0,4,4,38,21,4,4,40,8,4,4,37,12,4,34,26,16,4,26,0,3,4,26,21,3,4,24,12,3,43,80,29,4,31,0,3,4,31,21,3,4,28,12,3,11,49,26,4,35,0,3,4,27,17,3,4,23,21,3,9,102,16,4,24,0,3,4,29,17,3,4,29,21,3,7,284,53,3,45,2,4,3,41,17,4,3,44,12,4,3,45,22,4,8,185,51,3,44,2S*0D
17:39:25.115 $GLGNS,143925.10,,,,,,03,,,,1.1,110,S*14
17:39:25.115 $GAGNS,143925.10,,,,,,04,,,,1.1,110,S*1E
17:39:25.115 $GBGNS,143925.10,,,,,,05,,,,1.1,110,S*1C
17:39:25.115 $GNGGA,143925.10,5945.34862818,N,03028.61598071,E,5,18,0.7,49.6470,M,15.8763,M,1.1,110*52
17:39:25.115 $GNGNS,143925.20,5945.34862816,N,03028.61598160,E,FFFFNN,18,0.7,49.6496,15.8763,,,S*19
17:39:25.115 $GPGNS,143925.20,,,,,,06,,,,1.2,110,S*0D
17:39:25.115 $GLGNS,143925.20,,,,,,03,,,,1.2,110,S*14
17:39:25.115 $GAGNS,143925.20,,,,,,04,,,,1.2,110,S*1E
17:39:25.115 $GBGNS,143925.20,,,,,,05,,,,1.2,110,S*1C
17:39:25.131 $GNGGA,143925.20,5945.34862816,N,03028.61598160,E,5,18,0.7,49.6496,M,15.8763,M,1.2,110*55
17:39:25.237 $GNGNS,143925.30,5945.34867406,N,03028.61610348,E,FFFFNN,19,0.7,49.3614,15.8763,,,S*17
17:39:25.237 $GPGNS,143925.30,,,,,,06,,,,1.3,110,S*0D
17:39:25.340 $GLGNS,143925.30,,,,,,03,,,,1.3,110,S*14
17:39:25.340 $GAGNS,143925.30,,,,,,05,,,,1.3,110,S*1F
17:39:25.340 $GBGNS,143925.30,,,,,,05,,,,1.3,110,S*1C
17:39:25.340 $GNGGA,143925.30,5945.34867406,N,03028.61610348,E,5,19,0.7,49.3614,M,15.8763,M,1.3,110*5A
17:39:25.373 $GNGNS,143925.40,5945.34867333,N,03028.61610206,E,FFFFNN,19,0.7,49.3542,15.8763,,,S*1A
17:39:25.373 $GPGNS,143925.40,,,,,,06,,,,1.4,110,S*0D
17:39:25.383 $GLGNS,143925.40,,,,,,03,,,,1.4,110,S*14
17:39:25.383 $GAGNS,143925.40,,,,,,05,,,,1.4,110,S*1F
17:39:25.383 $GBGNS,143925.40,,,,,,05,,,,1.4,110,S*1C
17:39:25.383 $GNGGA,143925.40,5945.34867333,N,03028.61610206,E,5,19,0.7,49.3542,M,15.8763,M,1.4,110*50
17:39:25.386 $GNGNS,143925.50,5945.34867395,N,03028.61610100,E,FFFFNN,19,0.7,49.3615,15.8763,,,S*13
17:39:25.386 $GPGNS,143925.50,,,,,,06,,,,1.5,110,S*0D
17:39:25.402 $GLGNS,143925.50,,,,,,03,,,,1.5,110,S*14
17:39:25.402 $GAGNS,143925.50,,,,,,05,,,,1.5,110,S*1F
17:39:25.402 $GBGNS,143925.50,,,,,,05,,,,1.5,110,S*1C
17:39:25.402 $GNGGA,143925.50,5945.34867395,N,03028.61610100,E,5,19,0.7,49.3615,M,15.8763,M,1.5,110*58
17:39:25.493 $GNGNS,143925.60,5945.34867536,N,03028.61610479,E,FFFFNN,19,0.7,49.3626,15.8763,,,S*14
17:39:25.493 $GPGNS,143925.60,,,,,,06,,,,1.6,110,S*0D
17:39:25.495 $GLGNS,143925.60,,,,,,03,,,,1.6,110,S*14
17:39:25.495 $GAGNS,143925.60,,,,,,05,,,,1.6,110,S*1F
17:39:25.495 $GBGNS,143925.60,,,,,,05,,,,1.6,110,S*1C
17:39:25.495 $GNGGA,143925.60,5945.34867536,N,03028.61610479,E,5,19,0.7,49.3626,M,15.8763,M,1.6,110*5C
17:39:25.589 $GNGNS,143925.70,5945.34867418,N,03028.61610184,E,FFFFNN,19,0.7,49.3649,15.8763,,,S*16
17:39:25.589 $GPGNS,143925.70,,,,,,06,,,,0.7,110,S*0C
17:39:25.597 $GLGNS,143925.70,,,,,,03,,,,0.7,110,S*15
17:39:25.597 $GAGNS,143925.70,,,,,,05,,,,0.7,110,S*1E
17:39:25.597 $GBGNS,143925.70,,,,,,05,,,,0.7,110,S*1D
17:39:25.597 $GNGGA,143925.70,5945.34867418,N,03028.61610184,E,5,19,0.7,49.3649,M,15.8763,M,0.7,110*5E
17:39:25.694 $GNGNS,143925.80,5945.34867285,N,03028.61610074,E,FFFFNN,19,0.7,49.3702,15.8763,,,S*1B
17:39:25.694 $GPGNS,143925.80,,,,,,06,,,,0.8,110,S*0C
17:39:25.703 $GLGNS,143925.80,,,,,,03,,,,0.8,110,S*15
17:39:25.703 $GAGNS,143925.80,,,,,,05,,,,0.8,110,S*1E
17:39:25.703 $GBGNS,143925.80,,,,,,05,,,,0.8,110,S*1D
17:39:25.703 $GNGGA,143925.80,5945.34867285,N,03028.61610074,E,5,19,0.7,49.3702,M,15.8763,M,0.8,110*5C
17:39:25.859 $GNGNS,143925.90,5945.34867199,N,03028.61610115,E,FFFFNN,19,0.7,49.3658,15.8763,,,S*1C
17:39:25.859 $GPGNS,143925.90,,,,,,06,,,,0.9,110,S*0C
17:39:25.867 $GLGNS,143925.90,,,,,,03,,,,0.9,110,S*15
17:39:25.867 $GAGNS,143925.90,,,,,,05,,,,0.9,110,S*1E
17:39:25.867 $GBGNS,143925.90,,,,,,05,,,,0.9,110,S*1D
17:39:25.867 $GNGGA,143925.90,5945.34867199,N,03028.61610115,E,5,19,0.7,49.3658,M,15.8763,M,0.9,110*5A
17:39:25.880 $GNDTM,W84,,0.0,N,0.0,E,0.0,W84*71
17:39:25.880 $GNRMC,143926.00,A,5945.34867298,N,03028.61610284,E,0.004,176.1,101025,11.7,E,F,C*7A
17:39:25.916 $GNGNS,143926.00,5945.34867298,N,03028.61610284,E,FFFFNN,19,0.7,49.3758,15.8763,,,S*1E
17:39:25.916 $GPGNS,143926.00,,,,,,06,,,,1.0,110,S*0E
17:39:25.916 $GLGNS,143926.00,,,,,,03,,,,1.0,110,S*17
17:39:25.916 $GAGNS,143926.00,,,,,,05,,,,1.0,110,S*1C
17:39:25.916 $GBGNS,143926.00,,,,,,05,,,,1.0,110,S*1F
17:39:25.916 $GNGGA,143926.00,5945.34867298,N,03028.61610284,E,5,19,0.7,49.3758,M,15.8763,M,1.0,110*50
17:39:25.916 $GNGLL,5945.34867298,N,03028.61610284,E,143926.00,A,D*7E
17:39:25.916 $GNGSA,M,3,15,23,13,19,24,02,,,,,,,1.6,0.7,1.4,1*33
17:39:25.916 $GNGSA,M,3,79,69,88,,,,,,,,,,1.6,0.7,1.4,2*3A
17:39:25.916 $GNGSA,M,3,07,08,30,10,25,,,,,,,,1.6,0.7,1.4,3*30
17:39:25.916 $GNGSA,M,3,20,19,37,43,11,,,,,,,,1.6,0.7,1.4,4*34
17:39:25.919 $GPGSV,2,1,08,15,50,240,46,23,23,298,38,13,49,185,47,19,23,153,42,1*6A
17:39:25.919 $GPGSV,2,2,08,24,32,282,43,02,16,037,36,22,72,114,26,17,38,130,18,1*63
17:39:25.919 $GLGSV,2,1,05,79,61,258,46,69,55,242,47,78,60,064,28,88,19,102,24,2*7D
17:39:25.919 $GLGSV,2,2,05,68,20,191,28,2*41
17:39:25.919 $GBGSV,3,1,09,05,16,148,38,20,36,231,51,19,38,295,45,37,82,184,43,4*77
17:39:25.919 $GBGSV,3,2,09,34,15,026,26,43,28,079,30,40,42,065,26,11,25,049,34,4*70
17:39:25.940 $GBGSV,3,3,09,09,15,102,23,4*45
17:39:25.940 $GAGSV,2,1,07,14,,,41,07,53,283,45,08,50,185,44,30,35,217,46,3*48
17:39:25.940 $GAGSV,2,2,07,10,14,038,32,02,73,131,19,25,29,061,26,3*4C
17:39:25.940 $GIGSV,1,1,01,02,43,149,35,6*44
17:39:25.940 $GNVTG,176.074,T,164.408,M,0.00357,N,0.00662,K,D*37
17:39:25.940 $GNGST,143926.00,0.65,1.77,1.43,74.4744,1.457,1.749,2.697*70
17:39:25.940 $GNGRS,143926.00,0,0.1,1.5,0.2,0.3,0.7,6.8,,,,,,,1,1*57
17:39:25.943 $GNGRS,143926.00,0,0.2,2.4,0.8,0.5,0.3,,,,,,,,1,4*7B
17:39:25.943 $GNGRS,143926.00,0,0.2,5.7,,,1.8,,,,,,,,1,6*7A
17:39:25.943 $GNGRS,143926.00,0,,0.2,,,0.8,,,,,,,,1,8*59
17:39:25.943 $GNGRS,143926.00,0,,0.3,,,,,,,,,,,1,9*7F
17:39:25.943 $GNGRS,143926.00,0,0.1,0.2,7.6,,,,,,,,,,2,1*75
17:39:25.943 $GNGRS,143926.00,0,0.5,0.4,3.9,,,,,,,,,,2,3*7E
17:39:25.943 $GNGRS,143926.00,0,,0.6,,,,,,,,,,,2,5*75
17:39:26.047 $GNGRS,143926.00,0,0.2,0.2,0.2,5.7,7.5,,,,,,,,3,7*72
17:39:26.047 $GNGRS,143926.00,0,0.1,0.1,0.2,0.9,3.4,,,,,,,,3,1*7A
17:39:26.047 $GNGRS,143926.00,0,0.1,0.2,0.2,,0.6,,,,,,,,3,2*5C
17:39:26.047 $GNGRS,143926.00,0,0.1,0.1,0.2,1.4,0.5,,,,,,,,3,5*70
17:39:26.047 $GNGRS,143926.00,0,0.2,0.5,2.1,6.7,2.8,,,,,,,,4,1*7E
17:39:26.047 $GNGRS,143926.00,0,,,,,1.7,,,,,,,,4,11*46
17:39:26.047 $GNGRS,143926.00,0,0.0,0.1,0.2,0.5,7.5,,,,,,,,4,8*7C
17:39:26.064 $GNGRS,143926.00,0,0.1,2.0,1.0,,,,,,,,,,4,3*71
17:39:26.064 $GNGRS,143926.00,0,0.1,0.1,1.4,0.6,,,,,,,,,4,5*58
17:39:26.064 $GNGRS,143926.00,0,0.1,0.3,,,,,,,,,,,4,6*5A
17:39:26.064 $GNZDA,143926.00,10,10,2025,,*76
17:39:26.064 $GNGBS,143926.00,0.7,0.8,1.3,79,0.0,0.8,5.8,2,1*7F
17:39:26.064 #SATELLITEA,71,GPS,FINE,2387,484784000,0,0,18,25;GPS,TRUE,TRUE,8,2,0,16.3,37.3,0.000,0.000,13,0,49.9,185.2,0.000,0.000,15,0,50.6,240.9,0.000,0.000,17,0,38.5,130.7,0.000,0.000,19,0,23.2,153.4,0.000,0.000,22,0,72.4,114.3,0.000,0.000,23,0,23.7,298.6,0.000,0.000,24,0,32.7,282.5,0.000,0.000*f18f181a
17:39:26.088 #SATELLITEA,71,GPS,FINE,2387,484784000,0,0,18,25;GLONASS,TRUE,TRUE,5,41+6,0,21.0,191.8,0.000,0.000,42+1,0,55.6,242.4,0.000,0.000,51-7,0,60.2,64.7,0.000,0.000,52,0,61.3,258.3,0.000,0.000,61+2,0,19.1,102.0,0.000,0.000*824b0486
17:39:26.096 #SATELLITEA,71,GPS,FINE,2387,484784000,0,0,18,25;GALILEO,TRUE,TRUE,6,2,0,73.7,131.2,0.000,0.000,7,0,53.2,283.5,0.000,0.000,8,0,50.7,185.3,0.000,0.000,10,0,14.7,38.5,0.000,0.000,25,0,29.9,61.9,0.000,0.000,30,0,35.1,217.7,0.000,0.000*4656864f
17:39:26.096 #SATELLITEA,71,GPS,FINE,2387,484784000,0,0,18,25;BEIDOU,TRUE,TRUE,9,5,0,16.1,148.7,0.000,0.000,9,0,15.8,102.2,0.000,0.000,11,0,25.6,49.0,0.000,0.000,19,0,38.3,295.4,0.000,0.000,20,0,36.4,231.9,0.000,0.000,34,0,15.6,26.2,0.000,0.000,37,0,82.3,184.4,0.000,0.000,40,0,42.4,65.4,0.000,0.000,43,0,28.8,79.9,0.000,0.000*2657615c
17:39:26.105 #SATELLITEA,71,GPS,FINE,2387,484784000,0,0,18,26;QZSS,TRUE,TRUE,0*c9453f6e
17:39:26.105 #SATELLITEA,71,GPS,FINE,2387,484784000,0,0,18,26;SBAS,TRUE,TRUE,0*42d2b104
17:39:26.105 #SATELLITEA,71,GPS,FINE,2387,484784000,0,0,18,26;NAVIC,TRUE,TRUE,1,2,0,43.0,149.8,0.000,0.000*bc2e9b55
17:39:26.105 #SATSINFOA,71,GPS,FINE,2387,484784000,0,0,18,26;29,2,0,0,0,63,15,241,51,0,46,0,3,0,41,17,3,0,43,9,3,23,299,24,0,38,0,5,0,35,17,5,0,38,14,5,0,37,3,5,0,30,9,5,13,185,50,0,47,0,2,0,37,9,2,19,153,23,0,42,0,2,0,36,9,2,24,282,33,0,43,0,4,0,33,17,4,0,41,14,4,0,39,9,4,2,37,16,0,36,0,1,22,114,72,0,26,0,1,17,131,38,0,18,0,2,0,19,17,2,52,258,61,1,46,0,2,1,43,5,2,42,242,56,1,47,0,3,1,43,5,3,1,38,7,3,51,65,60,1,28,0,1,61,102,19,1,24,0,2,1,30,5,2,41,192,21,1,28,0,2,1,28,5,2,5,149,16,4,38,0,3,4,40,17,3,4,39,21,3,20,232,36,4,51,0,5,4,49,21,5,4,48,8,5,4,45,12,5,4,41,13,5,19,295,38,4,45,0,5,4,42,21,5,4,41,8,5,4,40,12,5,4,37,13,5,37,184,82,4,43,0,4,4,38,21,4,4,40,8,4,4,37,12,4,34,26,16,4,26,0,3,4,26,21,3,4,24,12,3,43,80,29,4,30,0,3,4,31,21,3,4,29,12,3,40,65,42,4,26,0,1,11,49,26,4,34,0,3,4,26,17,3,4,23,21,3,9,102,16,4,23,0,3,4,29,17,3,4,29,21,3,7,283,53,3,45,2,4,3,41,17,4,3,44,12,4,3,45,22,4,8,185,51,3,44,2,4,3,41,17,4,3,43,12,4,3,43,22,4,30,218,35,3,46,2,4,3,39,17,4,3,41,12,4,3,41,22,4,10,39,15,3,32,2,3,3,28,12,3,3,32,22,3,2,131,74,3,19,2,4,3,21,17,4,3,21,12,4,3,22,22,4,25,62,30,3,26,2,4,3,29,17,4,3,26,12,4,3,32,22,4,215,150,43,6,35,6,1*62ad345a
17:39:26.169 $GNGNS,143926.10,5945.34867364,N,03028.61610158,E,FFFFNN,19,0.7,49.3688,15.8763,,,S*13
17:39:26.199 $GPGNS,143926.10,,,,,,06,,,,1.1,110,S*0E
17:39:26.199 $GLGNS,143926.10,,,,,,03,,,,1.1,110,S*17
17:39:26.199 $GAGNS,143926.10,,,,,,05,,,,1.1,110,S*1C
17:39:26.199 $GBGNS,143926.10,,,,,,05,,,,1.1,110,S*1F
17:39:26.199 $GNGGA,143926.10,5945.34867364,N,03028.61610158,E,5,19,0.7,49.3688,M,15.8763,M,1.1,110*5C
17:39:26.201 $GNGNS,143926.20,5945.34867398,N,03028.61610326,E,FFFFNN,19,0.7,49.3733,15.8763,,,S*19
17:39:26.201 $GPGNS,143926.20,,,,,,06,,,,1.2,110,S*0E
17:39:26.203 $GLGNS,143926.20,,,,,,03,,,,1.2,110,S*17
17:39:26.203 $GAGNS,143926.20,,,,,,05,,,,1.2,110,S*1C
17:39:26.203 $GBGNS,143926.20,,,,,,05,,,,1.2,110,S*1F
17:39:26.203 $GNGGA,143926.20,5945.34867398,N,03028.61610326,E,5,19,0.7,49.3733,M,15.8763,M,1.2,110*55
17:39:26.205 $GNGNS,143926.30,5945.34872773,N,03028.61623501,E,FFFFNN,19,0.7,49.0879,15.8763,,,S*1C
17:39:26.205 $GPGNS,143926.30,,,,,,06,,,,1.3,110,S*0E
17:39:26.210 $GLGNS,143926.30,,,,,,03,,,,1.3,110,S*17
17:39:26.210 $GAGNS,143926.30,,,,,,05,,,,1.3,110,S*1C
17:39:26.210 $GBGNS,143926.30,,,,,,05,,,,1.3,110,S*1F
17:39:26.210 $GNGGA,143926.30,5945.34872773,N,03028.61623501,E,5,19,0.7,49.0879,M,15.8763,M,1.3,110*51
17:39:26.310 $GNGNS,143926.40,5945.34872476,N,03028.61622955,E,FFFFNN,19,0.7,49.0965,15.8763,,,S*1D
17:39:26.310 $GPGNS,143926.40,,,,,,06,,,,1.4,110,S*0E
17:39:26.315 $GLGNS,143926.40,,,,,,03,,,,1.4,110,S*17
17:39:26.315 $GAGNS,143926.40,,,,,,05,,,,1.4,110,S*1C
17:39:26.315 $GBGNS,143926.40,,,,,,05,,,,1.4,110,S*1F
17:39:26.315 $GNGGA,143926.40,5945.34872476,N,03028.61622955,E,5,19,0.7,49.0965,M,15.8763,M,1.4,110*57
17:39:26.450 $GNGNS,143926.50,5945.34872605,N,03028.61623165,E,FFFFNN,19,0.7,49.0963,15.8763,,,S*16
17:39:26.450 $GPGNS,143926.50,,,,,,06,,,,1.5,110,S*0E
17:39:26.524 $GLGNS,143926.50,,,,,,03,,,,1.5,110,S*17
17:39:26.524 $GAGNS,143926.50,,,,,,05,,,,1.5,110,S*1C
17:39:26.524 $GBGNS,143926.50,,,,,,05,,,,1.5,110,S*1F
17:39:26.524 $GNGGA,143926.50,5945.34872605,N,03028.61623165,E,5,19,0.7,49.0963,M,15.8763,M,1.5,110*5D
17:39:26.525 $GNGNS,143926.60,5945.34872583,N,03028.61623295,E,FFFFNN,19,0.7,49.0966,15.8763,,,S*11
17:39:26.525 $GPGNS,143926.60,,,,,,06,,,,1.6,110,S*0E
17:39:26.525 $GLGNS,143926.60,,,,,,03,,,,1.6,110,S*17
17:39:26.525 $GAGNS,143926.60,,,,,,05,,,,1.6,110,S*1C
17:39:26.525 $GBGNS,143926.60,,,,,,05,,,,1.6,110,S*1F
17:39:26.525 $GNGGA,143926.60,5945.34872583,N,03028.61623295,E,5,19,0.7,49.0966,M,15.8763,M,1.6,110*59
17:39:26.626 $GNGNS,143926.70,5945.34872637,N,03028.61623248,E,FFFFNN,19,0.7,49.0974,15.8763,,,S*1F
17:39:26.626 $GPGNS,143926.70,,,,,,06,,,,1.7,110,S*0E
17:39:26.628 $GLGNS,143926.70,,,,,,03,,,,1.7,110,S*17
17:39:26.628 $GAGNS,143926.70,,,,,,05,,,,1.7,110,S*1C
17:39:26.628 $GBGNS,143926.70,,,,,,05,,,,1.7,110,S*1F
17:39:26.628 $GNGGA,143926.70,5945.34872637,N,03028.61623248,E,5,19,0.7,49.0974,M,15.8763,M,1.7,110*56
17:39:26.715 $GNGNS,143926.80,5945.34872568,N,03028.61623209,E,FFFFNN,19,0.7,49.1003,15.8763,,,S*14
17:39:26.715 $GPGNS,143926.80,,,,,,06,,,,0.8,110,S*0F
17:39:26.720 $GLGNS,143926.80,,,,,,03,,,,0.8,110,S*16
17:39:26.720 $GAGNS,143926.80,,,,,,05,,,,0.8,110,S*1D
17:39:26.720 $GBGNS,143926.80,,,,,,05,,,,0.8,110,S*1E
17:39:26.720 $GNGGA,143926.80,5945.34872568,N,03028.61623209,E,5,19,0.7,49.1003,M,15.8763,M,0.8,110*53
17:39:26.820 $GNGNS,143926.90,5945.34872491,N,03028.61623282,E,FFFFNN,19,0.7,49.0986,15.8763,,,S*14
17:39:26.820 $GPGNS,143926.90,,,,,,06,,,,0.9,110,S*0F
17:39:26.822 $GLGNS,143926.90,,,,,,03,,,,0.9,110,S*16
17:39:26.822 $GAGNS,143926.90,,,,,,05,,,,0.9,110,S*1D
17:39:26.822 $GBGNS,143926.90,,,,,,05,,,,0.9,110,S*1E
17:39:26.822 $GNGGA,143926.90,5945.34872491,N,03028.61623282,E,5,19,0.7,49.0986,M,15.8763,M,0.9,110*52
17:39:26.898 $GNDTM,W84,,0.0,N,0.0,E,0.0,W84*71
17:39:26.898 $GNRMC,143927.00,A,5945.34872462,N,03028.61623039,E,0.003,67.9,101025,11.7,E,F,C*46
17:39:26.900 $GNGNS,143927.00,5945.34872462,N,03028.61623039,E,FFFFNN,19,0.7,49.1041,15.8763,,,S*11
17:39:26.900 $GPGNS,143927.00,,,,,,06,,,,1.0,110,S*0F
17:39:26.900 $GLGNS,143927.00,,,,,,03,,,,1.0,110,S*16
17:39:26.900 $GAGNS,143927.00,,,,,,05,,,,1.0,110,S*1D
17:39:26.900 $GBGNS,143927.00,,,,,,05,,,,1.0,110,S*1E
17:39:26.900 $GNGGA,143927.00,5945.34872462,N,03028.61623039,E,5,19,0.7,49.1041,M,15.8763,M,1.0,110*5F
17:39:26.900 $GNGLL,5945.34872462,N,03028.61623039,E,143927.00,A,D*7C
17:39:26.902 $GNGSA,M,3,15,23,13,19,24,02,,,,,,,1.6,0.7,1.4,1*33
17:39:26.902 $GNGSA,M,3,79,69,88,,,,,,,,,,1.6,0.7,1.4,2*3A
17:39:26.902 $GNGSA,M,3,07,08,30,10,25,,,,,,,,1.6,0.7,1.4,3*30
17:39:26.902 $GNGSA,M,3,20,19,37,43,11,,,,,,,,1.6,0.7,1.4,4*34
17:39:26.915 $GPGSV,2,1,08,15,50,240,46,23,23,298,38,13,49,185,47,19,23,153,42,1*6A
17:39:26.915 $GPGSV,2,2,08,24,32,282,43,02,16,037,36,22,72,114,26,17,38,130,18,1*63
17:39:26.915 $GLGSV,2,1,05,79,61,258,46,69,55,242,47,78,60,064,27,88,19,102,21,2*77
17:39:26.915 $GLGSV,2,2,05,68,20,191,27,2*4E
17:39:26.915 $GBGSV,3,1,09,05,16,148,38,20,36,231,51,19,38,295,45,37,82,184,43,4*77
17:39:26.915 $GBGSV,3,2,09,34,15,026,26,43,28,079,29,40,42,065,27,11,25,049,34,4*79
17:39:26.924 $GBGSV,3,3,09,09,15,102,22,4*44
17:39:26.924 $GAGSV,2,1,07,14,,,41,07,53,283,45,08,50,185,44,30,35,217,46,3*48
17:39:26.924 $GAGSV,2,2,07,10,14,038,32,02,73,131,20,25,29,061,26,3*46
17:39:26.924 $GIGSV,1,1,01,02,43,149,35,6*44
17:39:26.924 $GNVTG,67.949,T,56.282,M,0.00279,N,0.00518,K,D*36
17:39:26.924 $GNGST,143927.00,0.65,1.77,1.43,75.0092,1.451,1.746,2.673*7B
17:39:26.924 $GNGRS,143927.00,0,0.2,1.4,0.1,0.8,0.9,5.5,,,,,,,1,1*5C
17:39:26.945 $GNGRS,143927.00,0,0.3,2.0,0.5,0.7,0.3,,,,,,,,1,4*70
17:39:26.945 $GNGRS,143927.00,0,0.2,7.1,,,2.9,,,,,,,,1,6*7D
17:39:26.945 $GNGRS,143927.00,0,,0.3,,,0.8,,,,,,,,1,8*59
17:39:26.945 $GNGRS,143927.00,0,,0.5,,,,,,,,,,,1,9*78
17:39:26.945 $GNGRS,143927.00,0,0.2,0.2,8.1,,,,,,,,,,2,1*7F
17:39:26.945 $GNGRS,143927.00,0,0.5,0.2,6.9,,,,,,,,,,2,3*7C
17:39:26.945 $GNGRS,143927.00,0,,0.6,,,,,,,,,,,2,5*74
17:39:26.946 $GNGRS,143927.00,0,0.2,0.1,0.3,7.1,7.4,,,,,,,,3,7*74
17:39:26.946 $GNGRS,143927.00,0,0.1,0.1,0.1,0.8,3.1,,,,,,,,3,1*7C
17:39:26.946 $GNGRS,143927.00,0,0.1,0.2,0.1,,0.5,,,,,,,,3,2*5D
17:39:26.946 $GNGRS,143927.00,0,0.1,0.1,0.2,1.9,0.4,,,,,,,,3,5*7D
17:39:26.946 $GNGRS,143927.00,0,0.2,0.6,2.1,7.3,3.4,,,,,,,,4,1*74
17:39:26.958 $GNGRS,143927.00,0,,,,,2.4,,,,,,,,4,11*47
17:39:26.958 $GNGRS,143927.00,0,0.0,0.1,0.2,0.5,8.2,,,,,,,,4,8*75
17:39:26.958 $GNGRS,143927.00,0,0.2,2.0,1.1,,,,,,,,,,4,3*72
17:39:26.958 $GNGRS,143927.00,0,0.1,0.2,1.4,0.6,,,,,,,,,4,5*5A
17:39:26.958 $GNGRS,143927.00,0,0.1,0.4,,,,,,,,,,,4,6*5C
17:39:26.958 $GNZDA,143927.00,10,10,2025,,*77
17:39:26.958 $GNGBS,143927.00,0.7,0.8,1.3,23,0.0,-0.8,5.8,1,1*5F
17:39:26.961 #SATELLITEA,69,GPS,FINE,2387,484785000,0,0,18,25;GPS,TRUE,TRUE,8,2,0,16.3,37.3,0.000,0.000,13,0,49.9,185.2,0.000,0.000,15,0,50.6,240.9,0.000,0.000,17,0,38.5,130.7,0.000,0.000,19,0,23.2,153.4,0.000,0.000,22,0,72.4,114.3,0.000,0.000,23,0,23.7,298.6,0.000,0.000,24,0,32.7,282.5,0.000,0.000*9a668ec8
17:39:26.961 #SATELLITEA,69,GPS,FINE,2387,484785000,0,0,18,25;GLONASS,TRUE,TRUE,5,41+6,0,21.0,191.8,0.000,0.000,42+1,0,55.6,242.4,0.000,0.000,51-7,0,60.2,64.7,0.000,0.000,52,0,61.3,258.3,0.000,0.000,61+2,0,19.1,102.0,0.000,0.000*24c4bce5
17:39:26.972 #SATELLITEA,69,GPS,FINE,2387,484785000,0,0,18,26;GALILEO,TRUE,TRUE,6,2,0,73.7,131.2,0.000,0.000,7,0,53.2,283.5,0.000,0.000,8,0,50.7,185.3,0.000,0.000,10,0,14.7,38.5,0.000,0.000,25,0,29.9,61.9,0.000,0.000,30,0,35.1,217.7,0.000,0.000*b83c5b32
17:39:26.978 #SATELLITEA,69,GPS,FINE,2387,484785000,0,0,18,26;BEIDOU,TRUE,TRUE,9,5,0,16.1,148.7,0.000,0.000,9,0,15.8,102.2,0.000,0.000,11,0,25.6,49.0,0.000,0.000,19,0,38.3,295.4,0.000,0.000,20,0,36.4,231.9,0.000,0.000,34,0,15.6,26.2,0.000,0.000,37,0,82.3,184.3,0.000,0.000,40,0,42.4,65.4,0.000,0.000,43,0,28.8,79.9,0.000,0.000*fd293f9e
17:39:26.988 #SATELLITEA,69,GPS,FINE,2387,484785000,0,0,18,26;QZSS,TRUE,TRUE,0*41ff8b14
17:39:26.988 #SATELLITEA,69,GPS,FINE,2387,484785000,0,0,18,26;SBAS,TRUE,TRUE,0*ca68057e
17:39:26.988 #SATELLITEA,69,GPS,FINE,2387,484785000,0,0,18,26;NAVIC,TRUE,TRUE,1,2,0,43.0,149.8,0.000,0.000*599f9d7f
17:39:26.988 #SATSINFOA,69,GPS,FINE,2387,484785000,0,0,18,26;29,2,0,0,0,63,15,241,51,0,46,0,3,0,41,17,3,0,43,9,3,23,299,24,0,38,0,5,0,35,17,5,0,38,14,5,0,37,3,5,0,30,9,5,13,185,50,0,47,0,2,0,37,9,2,19,153,23,0,42,0,2,0,36,9,2,24,282,33,0,43,0,4,0,33,17,4,0,41,14,4,0,39,9,4,2,37,16,0,36,0,1,22,114,72,0,26,0,1,17,131,38,0,18,0,2,0,16,17,2,52,258,61,1,46,0,2,1,43,5,2,42,242,56,1,47,0,3,1,43,5,3,1,38,7,3,51,65,60,1,27,0,1,61,102,19,1,21,0,2,1,31,5,2,41,192,21,1,27,0,2,1,27,5,2,5,149,16,4,38,0,3,4,41,17,3,4,39,21,3,20,232,36,4,51,0,5,4,48,21,5,4,48,8,5,4,45,12,5,4,42,13,5,19,295,38,4,45,0,5,4,42,21,5,4,41,8,5,4,40,12,5,4,38,13,5,37,184,82,4,43,0,4,4,38,21,4,4,40,8,4,4,37,12,4,34,26,16,4,26,0,3,4,26,21,3,4,25,12,3,43,80,29,4,29,0,3,4,31,21,3,4,29,12,3,40,65,42,4,27,0,1,11,49,26,4,34,0,3,4,27,17,3,4,22,21,3,9,102,16,4,22,0,3,4,29,17,3,4,29,21,3,7,283,53,3,45,2,4,3,42,17,4,3,44,12,4,3,45,22,4,8,185,51,3,44,2,4,3,41,17,4,3,43,12,4,3,43,22,4,30,218,35,3,46,2,4,3,40,17,4,3,41,12,4,3,41,22,4,10,39,15,3,32,2,3,3,27,12,3,3,32,22,3,2,131,74,3,20,2,4,3,22,17,4,3,21,12,4,3,21,22,4,25,62,30,3,26,2,4,3,30,17,4,3,26,12,4,3,31,22,4,215,150,43,6,35,6,1*cc375f7a
17:39:27.037 $GNGNS,143927.10,5945.34872554,N,03028.61623328,E,FFFFNN,19,0.7,49.1019,15.8763,,,S*1A
17:39:27.037 $GPGNS,143927.10,,,,,,06,,,,1.1,110,S*0F
17:39:27.037 $GLGNS,143927.10,,,,,,03,,,,1.1,110,S*16
17:39:27.037 $GAGNS,143927.10,,,,,,05,,,,1.1,110,S*1D
17:39:27.037 $GBGNS,143927.10,,,,,,05,,,,1.1,110,S*1E
17:39:27.037 $GNGGA,143927.10,5945.34872554,N,03028.61623328,E,5,19,0.7,49.1019,M,15.8763,M,1.1,110*55
17:39:27.090 $GNGNS,143927.20,5945.34872426,N,03028.61623329,E,FFFFNN,19,0.7,49.1038,15.8763,,,S*1F
17:39:27.090 $GPGNS,143927.20,,,,,,06,,,,1.2,110,S*0F
17:39:27.111 $GLGNS,143927.20,,,,,,03,,,,1.2,110,S*16
17:39:27.111 $GAGNS,143927.20,,,,,,05,,,,1.2,110,S*1D
17:39:27.111 $GBGNS,143927.20,,,,,,05,,,,1.2,110,S*1E
17:39:27.111 $GNGGA,143927.20,5945.34872426,N,03028.61623329,E,5,19,0.7,49.1038,M,15.8763,M,1.2,110*53
17:39:27.238 $GNGNS,143927.30,5945.34877295,N,03028.61636042,E,FFFFNN,19,0.7,48.8312,15.8763,,,S*1C
17:39:27.238 $GPGNS,143927.30,,,,,,06,,,,1.3,110,S*0F
17:39:27.239 $GLGNS,143927.30,,,,,,03,,,,1.3,110,S*16
17:39:27.239 $GAGNS,143927.30,,,,,,05,,,,1.3,110,S*1D
17:39:27.239 $GBGNS,143927.30,,,,,,05,,,,1.3,110,S*1E
17:39:27.239 $GNGGA,143927.30,5945.34877295,N,03028.61636042,E,5,19,0.7,48.8312,M,15.8763,M,1.3,110*51
17:39:27.333 $GNGNS,143927.40,5945.34877288,N,03028.61636212,E,FFFFNN,19,0.7,48.8313,15.8763,,,S*11
17:39:27.333 $GPGNS,143927.40,,,,,,06,,,,1.4,110,S*0F
17:39:27.336 $GLGNS,143927.40,,,,,,03,,,,1.4,110,S*16
17:39:27.336 $GAGNS,143927.40,,,,,,05,,,,1.4,110,S*1D
17:39:27.336 $GBGNS,143927.40,,,,,,05,,,,1.4,110,S*1E
17:39:27.336 $GNGGA,143927.40,5945.34877288,N,03028.61636212,E,5,19,0.7,48.8313,M,15.8763,M,1.4,110*5B
17:39:27.390 $GNGNS,143927.50,5945.34877439,N,03028.61636080,E,FFFFNN,19,0.7,48.8256,15.8763,,,S*15
17:39:27.390 $GPGNS,143927.50,,,,,,06,,,,1.5,110,S*0F
17:39:27.397 $GLGNS,143927.50,,,,,,03,,,,1.5,110,S*16
17:39:27.397 $GAGNS,143927.50,,,,,,05,,,,1.5,110,S*1D
17:39:27.397 $GBGNS,143927.50,,,,,,05,,,,1.5,110,S*1E
17:39:27.397 $GNGGA,143927.50,5945.34877439,N,03028.61636080,E,5,19,0.7,48.8256,M,15.8763,M,1.5,110*5E
17:39:27.494 $GNGNS,143927.60,5945.34877326,N,03028.61636116,E,FFFFNN,19,0.7,48.8259,15.8763,,,S*1E
17:39:27.494 $GPGNS,143927.60,,,,,,06,,,,0.6,110,S*0E
17:39:27.501 $GLGNS,143927.60,,,,,,03,,,,0.6,110,S*17
17:39:27.501 $GAGNS,143927.60,,,,,,05,,,,0.6,110,S*1C
17:39:27.501 $GBGNS,143927.60,,,,,,05,,,,0.6,110,S*1F
17:39:27.501 $GNGGA,143927.60,5945.34877326,N,03028.61636116,E,5,19,0.7,48.8259,M,15.8763,M,0.6,110*57
17:39:27.602 $GNGNS,143927.70,5945.34877443,N,03028.61636279,E,FFFFNN,19,0.7,48.8309,15.8763,,,S*15
17:39:27.602 $GPGNS,143927.70,,,,,,06,,,,0.7,110,S*0E
17:39:27.606 $GLGNS,143927.70,,,,,,03,,,,0.7,110,S*17
17:39:27.606 $GAGNS,143927.70,,,,,,05,,,,0.7,110,S*1C
17:39:27.606 $GBGNS,143927.70,,,,,,05,,,,0.7,110,S*1F
17:39:27.606 $GNGGA,143927.70,5945.34877443,N,03028.61636279,E,5,19,0.7,48.8309,M,15.8763,M,0.7,110*5D
17:39:27.691 $GNGNS,143927.80,5945.34877378,N,03028.61636235,E,FFFFNN,19,0.7,48.8299,15.8763,,,S*15
17:39:27.691 $GPGNS,143927.80,,,,,,06,,,,0.8,110,S*0E
17:39:27.696 $GLGNS,143927.80,,,,,,03,,,,0.8,110,S*17
17:39:27.696 $GAGNS,143927.80,,,,,,05,,,,0.8,110,S*1C
17:39:27.696 $GBGNS,143927.80,,,,,,05,,,,0.8,110,S*1F
17:39:27.696 $GNGGA,143927.80,5945.34877378,N,03028.61636235,E,5,19,0.7,48.8299,M,15.8763,M,0.8,110*52
17:39:27.792 $GNGNS,143927.90,5945.34877351,N,03028.61636149,E,FFFFNN,19,0.7,48.8348,15.8763,,,S*1A
17:39:27.792 $GPGNS,143927.90,,,,,,06,,,,0.9,110,S*0E
17:39:27.793 $GLGNS,143927.90,,,,,,03,,,,0.9,110,S*17
17:39:27.793 $GAGNS,143927.90,,,,,,05,,,,0.9,110,S*1C
17:39:27.793 $GBGNS,143927.90,,,,,,05,,,,0.9,110,S*1F
17:39:27.793 $GNGGA,143927.90,5945.34877351,N,03028.61636149,E,5,19,0.7,48.8348,M,15.8763,M,0.9,110*5C
17:39:27.918 $GNDTM,W84,,0.0,N,0.0,E,0.0,W84*71
17:39:27.918 $GNRMC,143928.00,A,5945.34877344,N,03028.61636432,E,0.003,86.1,101025,11.7,E,F,C*43
17:39:27.922 $GNGNS,143928.00,5945.34877344,N,03028.61636432,E,FFFFNN,19,0.7,48.8359,15.8763,,,S*11
17:39:27.922 $GPGNS,143928.00,,,,,,06,,,,1.0,110,S*00
17:39:27.922 $GLGNS,143928.00,,,,,,03,,,,1.0,110,S*19
17:39:27.922 $GAGNS,143928.00,,,,,,05,,,,1.0,110,S*12
17:39:27.922 $GBGNS,143928.00,,,,,,05,,,,1.0,110,S*11
17:39:27.922 $GNGGA,143928.00,5945.34877344,N,03028.61636432,E,5,19,0.7,48.8359,M,15.8763,M,1.0,110*5F
17:39:27.922 $GNGLL,5945.34877344,N,03028.61636432,E,143928.00,A,D*7E
17:39:27.925 $GNGSA,M,3,15,23,13,19,24,02,,,,,,,1.6,0.7,1.4,1*33
17:39:27.925 $GNGSA,M,3,79,69,88,,,,,,,,,,1.6,0.7,1.4,2*3A
17:39:27.925 $GNGSA,M,3,07,08,30,10,25,,,,,,,,1.6,0.7,1.4,3*30
17:39:27.925 $GNGSA,M,3,20,19,37,43,11,,,,,,,,1.6,0.7,1.4,4*34
17:39:27.925 $GPGSV,2,1,08,15,50,240,46,23,23,298,38,13,49,185,47,19,23,153,42,1*6A
17:39:27.925 $GPGSV,2,2,08,24,32,282,43,02,16,037,36,22,72,114,26,17,38,130,19,1*62
17:39:27.928 $GLGSV,2,1,05,79,61,258,46,69,55,242,47,78,60,064,26,88,19,102,19,2*7D
17:39:27.928 $GLGSV,2,2,05,68,0.66,1.75,1.42,75.5877,1.444,1.733,2.643*77
17:39:27.928 $GNGRS,143928.00,0,0.2,1.0,0.1,0.8,1.2,5.3,,,,,,,1,1*5B
17:39:27.928 $GNGRS,143928.00,0,0.2,2.3,0.6,0.9,0.3,,,,,,,,1,4*70
17:39:27.928 $GNGRS,143928.00,0,0.4,7.2,,,1.1,,,,,,,,1,6*7C
17:39:27.928 $GNGRS,143928.00,0,,0.3,,,0.8,,,,,,,,1,8*56
17:39:27.928 $GNGRS,143928.00,0,,0.8,,,,,,,,,,,1,9*7A
17:39:27.928 $GNGRS,143928.00,0,0.3,0.2,8.3,,,,,,,,,,2,1*73
17:39:27.928 $GNGRS,143928.00,0,0.5,0.2,4.5,,,,,,,,,,2,3*7D
17:39:27.933 $GNGRS,143928.00,0,,0.6,,,,,,,,,,,2,5*7B
17:39:27.933 $GNGRS,143928.00,0,0.1,0.1,0.3,7.0,7.5,,,,,,,,3,7*78
17:39:27.933 $GNGRS,143928.00,0,0.1,0.1,0.1,0.8,2.4,,,,,,,,3,1*77
17:39:27.933 $GNGRS,143928.00,0,0.1,0.2,0.1,,0.5,,,,,,,,3,2*52
17:39:27.933 $GNGRS,143928.00,0,0.1,0.1,0.2,1.4,0.6,,,,,,,,3,5*7D
17:39:27.937 $GNGRS,143928.00,0,0.1,0.7,1.9,5.1,2.7,,,,,,,,4,1*70
17:39:27.937 $GNGRS,143928.00,0,,,,,2.0,,,,,,,,4,11*4C
17:39:27.937 $GNGRS,143928.00,0,0.0,0.1,0.2,0.5,6.7,,,,,,,,4,8*71
17:39:27.937 $GNGRS,143928.00,0,0.2,2.0,1.0,,,,,,,,,,4,3*7C
17:39:27.937 $GNGRS,143928.00,0,0.1,0.1,1.1,0.6,,,,,,,,,4,5*53
17:39:27.937 $GNGRS,143928.00,0,0.1,0.4,,,,,,,,,,,4,6*53
17:39:27.937 $GNZDA,143928.00,10,10,2025,,*78
17:39:27.941 $GNGBS,143928.00,0.7,0.8,1.3,23,0.0,-0.8,5.8,1,1*50
17:39:27.941 #SATELLITEA,71,GPS,FINE,2387,484786000,0,0,18,25;GPS,TRUE,TRUE,8,2,0,16.3,37.3,0.000,0.000,13,0,49.9,185.2,0.000,0.000,15,0,50.6,240.9,0.000,0.000,17,0,38.5,130.7,0.000,0.000,19,0,23.2,153.4,0.000,0.000,22,0,72.4,114.3,0.000,0.000,23,0,23.7,298.6,0.000,0.000,24,0,32.7,282.5,0.000,0.000*f67ce8dc
17:39:27.968 #SATELLITEA,71,GPS,FINE,2387,484786000,0,0,18,25;GLONASS,TRUE,TRUE,5,41+6,0,21.0,191.8,0.000,0.000,42+1,0,55.6,242.4,0.000,0.000,51-7,0,60.2,64.7,0.000,0.000,52,0,61.3,258.3,0.000,0.000,61+2,0,19.1,102.0,0.000,0.000*42977b99
17:39:27.968 #SATELLITEA,71,GPS,FINE,2387,484786000,0,0,18,25;GALILEO,TRUE,TRUE,6,2,0,73.7,131.2,0.000,0.000,7,0,53.2,283.5,0.000,0.000,8,0,50.7,185.3,0.000,0.000,10,0,14.7,38.5,0.000,0.000,25,0,29.8,61.9,0.000,0.000,30,0,35.1,217.7,0.000,0.000*90ec5ca7
17:39:27.979 #SATELLITEA,71,GPS,FINE,2387,484786000,0,0,18,25;BEIDOU,TRUE,TRUE,8,5,0,16.1,148.7,0.000,0.000,9,0,15.8,102.2,0.000,0.000,11,0,25.6,49.0,0.000,0.000,19,0,38.3,295.4,0.000,0.000,20,0,36.4,231.9,0.000,0.000,34,0,15.6,26.2,0.000,0.000,37,0,82.3,184.3,0.000,0.000,43,0,28.8,79.9,0.000,0.000*2f2a9269
17:39:27.984 #SATELLITEA,71,GPS,FINE,2387,484786000,0,0,18,25;QZSS,TRUE,TRUE,0*3e0c33ae
17:39:27.984 #SATELLITEA,71,GPS,FINE,2387,484786000,0,0,18,25;SBAS,TRUE,TRUE,0*b59bbdc4
17:39:27.984 #SATELLITEA,71,GPS,FINE,2387,484786000,0,0,18,25;NAVIC,TRUE,TRUE,1,2,0,43.0,149.8,0.000,0.000*eeec3c02
17:39:27.986 #SATSINFOA,71,GPS,FINE,2387,484786000,0,0,18,26;28,2,0,0,0,63,15,241,51,0,46,0,3,0,41,17,3,0,43,9,3,23,299,24,0,38,0,5,0,35,17,5,0,38,14,5,0,37,3,5,0,30,9,5,13,185,50,0,47,0,2,0,37,9,2,19,153,23,0,42,0,2,0,36,9,2,24,282,33,0,43,0,4,0,33,17,4,0,41,14,4,0,39,9,4,2,37,16,0,36,0,1,22,114,72,0,26,0,1,17,131,38,0,19,0,1,52,258,61,1,46,0,2,1,43,5,2,42,242,56,1,47,0,3,1,43,5,3,1,38,7,3,51,65,60,1,26,0,1,61,102,19,1,19,0,2,1,32,5,2,41,192,21,1,27,0,2,1,27,5,2,5,149,16,4,38,0,3,4,41,17,3,4,39,21,3,20,232,36,4,51,0,5,4,48,21,5,4,48,8,5,4,45,12,5,4,42,13,5,19,295,38,4,45,0,5,4,42,21,5,4,41,8,5,4,40,12,5,4,38,13,5,37,184,82,4,43,0,4,4,38,21,4,4,40,8,4,4,37,12,4,34,26,16,4,26,0,3,4,26,21,3,4,24,12,3,43,80,29,4,29,0,3,4,31,21,3,4,29,12,3,11,49,26,4,34,0,3,4,27,17,3,4,23,21,3,9,102,16,4,25,0,3,4,30,17,3,4,28,21,3,7,283,53,3,45,2,4,3,42,17,4,3,44,12,4,3,45,22,4,8,185,51,3,44,2,4,3,41,17,4,3,43,12,4,3,43,22,4,30,218,35,3,46,2,4,3,40,17,4,3,41,12,4,3,41,22,4,10,39,15,3,32,2,3,3,28,12,3,3,32,22,3,2,131,74,3,19,2,4,3,22,17,4,3,21,12,4,3,21,22,4,25,62,30,3,26,2,4,3,30,17,4,3,26,12,4,3,31,22,4,215,150,43,6,36,6,1*aaf8594e
17:39:28.001 $GNGNS,143928.10,5945.34877315,N,03028.61636232,E,FFFFNN,19,0.7,48.8338,15.8763,,,S*15
17:39:28.001 $GPGNS,143928.10,,,,,,06,,,,1.1,110,S*00
17:39:28.001 $GLGNS,143928.10,,,,,,03,,,,1.1,110,S*19
17:39:28.008 $GAGNS,143928.10,,,,,,05,,,,1.1,110,S*12
17:39:28.008 $GBGNS,143928.10,,,,,,05,,,,1.1,110,S*11
17:39:28.008 $GNGGA,143928.10,5945.34877315,N,03028.61636232,E,5,19,0.7,48.8338,M,15.8763,M,1.1,110*5A
17:39:28.126 $GNGNS,143928.20,5945.34877314,N,03028.61636315,E,FFFFNN,19,0.7,48.8347,15.8763,,,S*1B
17:39:28.126 $GPGNS,143928.20,,,,,,06,,,,1.2,110,S*00
17:39:28.131 $GLGNS,143928.20,,,,,,03,,,,1.2,110,S*19
17:39:28.131 $GAGNS,143928.20,,,,,,05,,,,1.2,110,S*12
17:39:28.131 $GBGNS,143928.20,,,,,,05,,,,1.2,110,S*11
17:39:28.131 $GNGGA,143928.20,5945.34877314,N,03028.61636315,E,5,19,0.7,48.8347,M,15.8763,M,1.2,110*57
17:39:28.202 $GNGNS,143928.30,5945.34882246,N,03028.61648217,E,FFFFNN,20,0.7,48.5603,15.8763,,,S*1E
17:39:28.202 $GPGNS,143928.30,,,,,,06,,,,1.3,110,S*00
17:39:28.204 $GLGNS,143928.30,,,,,,03,,,,1.3,110,S*19
17:39:28.204 $GAGNS,143928.30,,,,,,05,,,,1.3,110,S*12
17:39:28.204 $GBGNS,143928.30,,,,,,06,,,,1.3,110,S*12
17:39:28.204 $GNGGA,143928.30,5945.34882246,N,03028.61648217,E,5,20,0.7,48.5603,M,15.8763,M,1.3,110*53
17:39:28.289 $GNGNS,143928.40,5945.34882267,N,03028.61648412,E,FFFFNN,20,0.7,48.5667,15.8763,,,S*1B
17:39:28.289 $GPGNS,143928.40,,,,,,06,,,,1.4,110,S*00
17:39:28.296 $GLGNS,143928.40,,,,,,03,,,,1.4,110,S*19
17:39:28.296 $GAGNS,143928.40,,,,,,05,,,,1.4,110,S*12
17:39:28.296 $GBGNS,143928.40,,,,,,06,,,,1.4,110,S*12
17:39:28.296 $GNGGA,143928.40,5945.34882267,N,03028.61648412,E,5,20,0.7,48.5667,M,15.8763,M,1.4,110*51
17:39:28.414 $GNGNS,143928.50,5945.34882173,N,03028.61648376,E,FFFFNN,20,0.7,48.5654,15.8763,,,S*19
17:39:28.414 $GPGNS,143928.50,,,,,,06,,,,1.5,110,S*00
17:39:28.423 $GLGNS,143928.50,,,,,,03,,,,1.5,110,S*19
17:39:28.423 $GAGNS,143928.50,,,,,,05,,,,1.5,110,S*12
17:39:28.423 $GBGNS,143928.50,,,,,,06,,,,1.5,110,S*12
17:39:28.423 $GNGGA,143928.50,5945.34882173,N,03028.61648376,E,5,20,0.7,48.5654,M,15.8763,M,1.5,110*52
17:39:28.490 $GNGNS,143928.60,5945.34882182,N,03028.61648151,E,FFFFNN,20,0.7,48.5730,15.8763,,,S*10
17:39:28.490 $GPGNS,143928.60,,,,,,06,,,,1.6,110,S*00
17:39:28.496 $GLGNS,143928.60,,,,,,03,,,,1.6,110,S*19
17:39:28.496 $GAGNS,143928.60,,,,,,05,,,,1.6,110,S*12
17:39:28.496 $GBGNS,143928.60,,,,,,06,,,,1.6,110,S*12
17:39:28.496 $GNGGA,143928.60,5945.34882182,N,03028.61648151,E,5,20,0.7,48.5730,M,15.8763,M,1.6,110*58
17:39:28.589 $GNGNS,143928.70,5945.34882114,N,03028.61647842,E,FFFFNN,20,0.7,48.5719,15.8763,,,S*11
17:39:28.589 $GPGNS,143928.70,,,,,,06,,,,0.7,110,S*01
17:39:28.596 $GLGNS,143928.70,,,,,,03,,,,0.7,110,S*18
17:39:28.596 $GAGNS,143928.70,,,,,,05,,,,0.7,110,S*13
17:39:28.596 $GBGNS,143928.70,,,,,,06,,,,0.7,110,S*13
17:39:28.596 $GNGGA,143928.70,5945.34882114,N,03028.61647842,E,5,20,0.7,48.5719,M,15.8763,M,0.7,110*59
17:39:28.709 $GNGNS,143928.80,5945.34882170,N,03028.61647846,E,FFFFNN,20,0.7,48.5709,15.8763,,,S*19
17:39:28.709 $GPGNS,143928.80,,,,,,06,,,,0.8,110,S*01
17:39:28.718 $GLGNS,143928.80,,,,,,03,,,,0.8,110,S*18
17:39:28.718 $GAGNS,143928.80,,,,,,05,,,,0.8,110,S*13
17:39:28.718 $GBGNS,143928.80,,,,,,06,,,,0.8,110,S*13
17:39:28.718 $GNGGA,143928.80,5945.34882170,N,03028.61647846,E,5,20,0.7,48.5709,M,15.8763,M,0.8,110*5E
17:39:28.800 $GNGNS,143928.90,5945.34882131,N,03028.61648146,E,FFFFNN,20,0.7,48.5688,15.8763,,,S*13
17:39:28.800 $GPGNS,143928.90,,,,,,06,,,,0.9,110,S*01
17:39:28.802 $GLGNS,143928.90,,,,,,03,,,,0.9,110,S*18
17:39:28.802 $GAGNS,143928.90,,,,,,05,,,,0.9,110,S*13
17:39:28.802 $GBGNS,143928.90,,,,,,06,,,,0.9,110,S*13
17:39:28.802 $GNGGA,143928.90,5945.34882131,N,03028.61648146,E,5,20,0.7,48.5688,M,15.8763,M,0.9,110*55
17:39:28.889 $GNDTM,W84,,0.0,N,0.0,E,0.0,W84*71
17:39:28.889 $GNRMC,143929.00,A,5945.34882182,N,03028.61648318,E,0.002,221.1,101025,11.7,E,F,C*78
17:39:28.914 $GNGNS,143929.00,5945.34882182,N,03028.61648318,E,FFFFNN,20,0.7,48.5731,15.8763,,,S*19
17:39:28.914 $GPGNS,143929.00,,,,,,06,,,,1.0,110,S*01
17:39:28.914 $GLGNS,143929.00,,,,,,03,,,,1.0,110,S*18
17:39:28.914 $GAGNS,143929.00,,,,,,05,,,,1.0,110,S*13
17:39:28.914 $GBGNS,143929.00,,,,,,06,,,,1.0,110,S*13
17:39:28.918 $GNGGA,143929.00,5945.34882182,N,03028.61648318,E,5,20,0.7,48.5731,M,15.8763,M,1.0,110*57
17:39:28.918 $GNGLL,5945.34882182,N,03028.61648318,E,143929.00,A,D*7B
17:39:28.918 $GNGSA,M,3,15,23,13,19,24,02,,,,,,,1.5,0.7,1.4,1*30
17:39:28.918 $GNGSA,M,3,79,69,88,,,,,,,,,,1.5,0.7,1.4,2*39
17:39:28.918 $GNGSA,M,3,07,08,30,10,25,,,,,,,,1.5,0.7,1.4,3*33
17:39:28.918 $GNGSA,M,3,20,19,37,43,11,09,,,,,,,1.5,0.7,1.4,4*3E
17:39:28.924 $GPGSV,2,1,08,15,50,240,46,23,23,298,39,13,49,185,47,19,23,153,42,1*6B
17:39:28.924 $GPGSV,2,2,08,24,32,282,43,02,16,037,35,22,72,114,26,17,38,130,20,1*6B
17:39:28.924 $GLGSV,2,1,05,79,61,258,46,69,55,242,47,78,60,064,25,88,19,102,20,2*74
17:39:28.924 $GLGSV,2,2,05,68,20,191,26,2*4F
17:39:28.924 $GBGSV,2,1,08,05,16,148,38,20,36,231,50,19,38,295,44,37,82,184,42,4*76
17:39:28.924 $GBGSV,2,2,08,34,15,026,25,43,28,079,28,11,25,049,33,09,15,102,23,4*77
17:39:28.980 $GAGSV,2,1,07,14,,,40,07,53,283,45,08,50,185,43,30,35,217,45,3*4D
17:39:28.980 $GAGSV,2,2,07,10,14,038,31,02,73,131,19,25,29,061,27,3*4E
17:39:28.980 $GIGSV,1,1,01,02,43,149,35,6*44
17:39:28.980 $GNVTG,221.105,T,209.435,M,0.00238,N,0.00440,K,D*3D
17:39:28.980 $GNGST,143929.00,0.65,1.75,1.42,76.1378,1.439,1.731,2.620*7B
17:39:28.980 $GNGRS,143929.00,0,0.2,0.4,0.1,0.7,1.2,1.8,,,,,,,1,1*5F
17:39:28.998 $GNGRS,143929.00,0,0.3,2.8,0.5,0.5,0.3,,,,,,,,1,4*74
17:39:28.998 $GNGRS,143929.00,0,0.2,7.2,,,3.6,,,,,,,,1,6*7E
17:39:28.998 $GNGRS,143929.00,0,,0.3,,,0.7,,,,,,,,1,8*58
17:39:28.998 $GNGRS,143929.00,0,,1.2,,,,,,,,,,,1,9*70
17:39:28.998 $GNGRS,143929.00,0,0.4,0.3,7.7,,,,,,,,,,2,1*7F
17:39:28.998 $GNGRS,143929.00,0,0.6,0.3,5.3,,,,,,,,,,2,3*79
17:39:28.998 $GNGRS,143929.00,0,,0.7,,,,,,,,,,,2,5*7B
17:39:28.998 $GNGRS,143929.00,0,0.1,0.1,0.3,6.9,7.5,,,,,,,,3,7*71
17:39:29.001 $GNGRS,143929.00,0,0.1,0.1,0.1,0.9,2.6,,,,,,,,3,1*75
17:39:29.001 $GNGRS,143929.00,0,0.1,0.2,0.2,,0.6,,,,,,,,3,2*53
17:39:29.001 $GNGRS,143929.00,0,0.1,0.1,0.2,1.2,0.5,,,,,,,,3,5*79
17:39:29.001 $GNGRS,143929.00,0,0.1,0.7,1.7,4.5,3.5,8.2,,,,,,,4,1*5D
17:39:29.030 $GNGRS,143929.00,0,,,,,1.5,6.0,,,,,,,4,11*63
17:39:29.030 $GNGRS,143929.00,0,0.0,0.1,0.2,0.4,7.6,0.7,,,,,,,4,8*58
17:39:29.030 $GNGRS,143929.00,0,0.2,1.9,1.1,,,,,,,,,,4,3*76
17:39:29.030 $GNGRS,143929.00,0,0.1,0.2,1.1,1.0,,,,,,,,,4,5*56
17:39:29.030 $GNGRS,143929.00,0,0.1,0.3,,,,,,,,,,,4,6*55
17:39:29.030 $GNZDA,143929.00,10,10,2025,,*79
17:39:29.030 $GNGBS,143929.00,0.7,0.8,1.4,19,0.0,0.9,6.2,4,1*7F
17:39:29.030 #SATELLITEA,68,GPS,FINE,2387,484787000,0,0,18,24;GPS,TRUE,TRUE,8,2,0,16.3,37.2,0.000,0.000,13,0,49.9,185.2,0.000,0.000,15,0,50.6,240.9,0.000,0.000,17,0,38.6,130.6,0.000,0.000,19,0,23.2,153.4,0.000,0.000,22,0,72.4,114.3,0.000,0.000,23,0,23.7,298.6,0.000,0.000,24,0,32.7,282.5,0.000,0.000*dc9799c7
17:39:29.034 #SATELLITEA,68,GPS,FINE,2387,484787000,0,0,18,25;GLONASS,TRUE,TRUE,5,41+6,0,20.9,191.8,0.000,0.000,42+1,0,55.6,242.4,0.000,0.000,51-7,0,60.2,64.7,0.000,0.000,52,0,61.3,258.4,0.000,0.000,61+2,0,19.1,102.0,0.000,0.000*bb9af2c1
17:39:29.061 #SATELLITEA,68,GPS,FINE,2387,484787000,0,0,18,25;GALILEO,TRUE,TRUE,6,2,0,73.7,131.2,0.000,0.000,7,0,53.2,283.5,0.000,0.000,8,0,50.7,185.3,0.000,0.000,10,0,14.7,38.5,0.000,0.000,25,0,29.8,61.9,0.000,0.000,30,0,35.1,217.7,0.000,0.000*3d6694d5
17:39:29.066 #SATELLITEA,68,GPS,FINE,2387,484787000,0,0,18,25;BEIDOU,TRUE,TRUE,8,5,0,16.1,148.7,0.000,0,2,19,153,23,0,42,0,2,0,36,9,2,24,282,33,0,43,0,4,0,33,17,4,0,41,14,4,0,39,9,4,2,37,16,0,35,0,1,22,114,72,0,26,0,1,17,131,39,0,20,0,2,0,16,17,2,52,258,61,1,46,0,2,1,43,5,2,42,242,56,1,47,0,3,1,43,5,3,1,38,7,3,51,65,60,1,25,0,1,61,102,19,1,20,0,2,1,32,5,2,41,192,21,1,26,0,2,1,28,5,2,5,149,16,4,38,0,3,4,41,17,3,4,39,21,3,20,232,36,4,50,0,5,4,49,21,5,4,48,8,5,4,45,12,5,4,42,13,5,19,295,38,4,44,0,5,4,43,21,5,4,41,8,5,4,40,12,5,4,38,13,5,37,184,82,4,42,0,4,4,39,21,4,4,40,8,4,4,37,12,4,34,26,16,4,25,0,3,4,27,21,3,4,25,12,3,43,80,29,4,28,0,3,4,31,21,3,4,29,12,3,11,49,26,4,33,0,3,4,27,17,3,4,23,21,3,9,102,16,4,23,0,3,4,30,17,3,4,28,21,3,7,283,53,3,45,2,4,3,41,17,4,3,44,12,4,3,45,22,4,8,185,51,3,43,2,4,3,41,17,4,3,43,12,4,3,43,22,4,30,218,35,3,45,2,4,3,40,17,4,3,41,12,4,3,41,22,4,10,39,15,3,31,2,3,3,28,12,3,3,32,22,3,2,131,74,3,19,2,4,3,22,17,4,3,21,12,4,3,21,22,4,25,62,30,3,27,2,4,3,29,17,4,3,26,12,4,3,31,22,4,215,150,43,6,35,6,1*64cf64d8
17:39:29.126 $GNGNS,143929.10,5945.34882040,N,03028.61648130,E,FFFFNN,20,0.7,48.5682,15.8763,,,S*16
17:39:29.127 $GPGNS,143929.10,,,,,,06,,,,1.1,110,S*01
17:39:29.127 $GLGNS,143929.10,,,,,,03,,,,1.1,110,S*18
17:39:29.127 $GAGNS,143929.10,,,,,,05,,,,1.1,110,S*13
17:39:29.127 $GBGNS,143929.10,,,,,,06,,,,1.1,110,S*13
17:39:29.127 $GNGGA,143929.10,5945.34882040,N,03028.61648130,E,5,20,0.7,48.5682,M,15.8763,M,1.1,110*59
17:39:29.129 $GNGNS,143929.20,5945.34882076,N,03028.61648015,E,FFFFNN,20,0.7,48.5772,15.8763,,,S*18
17:39:29.129 $GPGNS,143929.20,,,,,,06,,,,1.2,110,S*01
17:39:29.130 $GLGNS,143929.20,,,,,,03,,,,1.2,110,S*18
17:39:29.130 $GAGNS,143929.20,,,,,,05,,,,1.2,110,S*13
17:39:29.130 $GBGNS,143929.20,,,,,,06,,,,1.2,110,S*13
17:39:29.130 $GNGGA,143929.20,5945.34882076,N,03028.61648015,E,5,20,0.7,48.5772,M,15.8763,M,1.2,110*54
17:39:29.190 $GNGNS,143929.30,5945.34887020,N,03028.61660239,E,FFFFNN,20,0.7,48.2984,15.8763,,,S*19
17:39:29.190 $GPGNS,143929.30,,,,,,06,,,,1.3,110,S*01
17:39:29.195 $GLGNS,143929.30,,,,,,03,,,,1.3,110,S*18
17:39:29.195 $GAGNS,143929.30,,,,,,05,,,,1.3,110,S*13
17:39:29.195 $GBGNS,143929.30,,,,,,06,,,,1.3,110,S*13
17:39:29.195 $GNGGA,143929.30,5945.34887020,N,03028.61660239,E,5,20,0.7,48.2984,M,15.8763,M,1.3,110*54
17:39:29.310 $GNGNS,143929.40,5945.34886969,N,03028.61660266,E,FFFFNN,20,0.7,48.3010,15.8763,,,S*14
17:39:29.310 $GPGNS,143929.40,,,,,,06,,,,1.4,110,S*01
17:39:29.312 $GLGNS,143929.40,,,,,,03,,,,1.4,110,S*18
17:39:29.312 $GAGNS,143929.40,,,,,,05,,,,1.4,110,S*13
17:39:29.312 $GBGNS,143929.40,,,,,,06,,,,1.4,110,S*13
17:39:29.312 $GNGGA,143929.40,5945.34886969,N,03028.61660266,E,5,20,0.7,48.3010,M,15.8763,M,1.4,110*5E
17:39:29.414 $GNGNS,143929.50,5945.34886944,N,03028.61660522,E,FFFFNN,20,0.7,48.2995,15.8763,,,S*18
17:39:29.414 $GPGNS,143929.50,,,,,,06,,,,1.5,110,S*01
17:39:29.416 $GLGNS,143929.50,,,,,,03,,,,1.5,110,S*18
17:39:29.416 $GAGNS,143929.50,,,,,,05,,,,1.5,110,S*13
17:39:29.416 $GBGNS,143929.50,,,,,,06,,,,1.5,110,S*13
17:39:29.416 $GNGGA,143929.50,5945.34886944,N,03028.61660522,E,5,20,0.7,48.2995,M,15.8763,M,1.5,110*53
17:39:29.503 $GNGNS,143929.60,5945.34887053,N,03028.61660405,E,FFFFNN,20,0.7,48.3045,15.8763,,,S*14
17:39:29.503 $GPGNS,143929.60,,,,,,06,,,,1.6,110,S*01
17:39:29.503 $GLGNS,143929.60,,,,,,03,,,,1.6,110,S*18
17:39:29.503 $GAGNS,143929.60,,,,,,05,,,,1.6,110,S*13
17:39:29.503 $GBGNS,143929.60,,,,,,06,,,,1.6,110,S*13
17:39:29.506 $GNGGA,143929.60,5945.34887053,N,03028.61660405,E,5,20,0.7,48.3045,M,15.8763,M,1.6,110*5C
17:39:29.610 $GNGNS,143929.70,5945.34887004,N,03028.61659896,E,FFFFNN,20,0.7,48.3083,15.8763,,,S*11
17:39:29.610 $GPGNS,143929.70,,,,,,06,,,,0.7,110,S*00
17:39:29.612 $GLGNS,143929.70,,,,,,03,,,,0.7,110,S*19
17:39:29.612 $GAGNS,143929.70,,,,,,05,,,,0.7,110,S*12
17:39:29.612 $GBGNS,143929.70,,,,,,06,,,,0.7,110,S*12
17:39:29.612 $GNGGA,143929.70,5945.34887004,N,03028.61659896,E,5,20,0.7,48.3083,M,15.8763,M,0.7,110*59
17:39:29.700 $GNGNS,143929.80,5945.34886890,N,03028.61659995,E,FFFFNN,20,0.7,48.3062,15.8763,,,S*17
17:39:29.700 $GPGNS,143929.80,,,,,,06,,,,0.8,110,S*00
17:39:29.703 $GLGNS,143929.80,,,,,,03,,,,0.8,110,S*19
17:39:29.703 $GAGNS,143929.80,,,,,,05,,,,0.8,110,S*12
17:39:29.703 $GBGNS,143929.80,,,,,,06,,,,0.8,110,S*12
17:39:29.703 $GNGGA,143929.80,5945.34886890,N,03028.61659995,E,5,20,0.7,48.3062,M,15.8763,M,0.8,110*50
17:39:29.803 $GNGNS,143929.90,5945.34886908,N,03028.61660366,E,FFFFNN,20,0.7,48.3070,15.8763,,,S*19
17:39:29.803 $GPGNS,143929.90,,,,,,06,,,,0.9,110,S*00
17:39:29.804 $GLGNS,143929.90,,,,,,03,,,,0.9,110,S*19
17:39:29.804 $GAGNS,143929.90,,,,,,05,,,,0.9,110,S*12
17:39:29.804 $GBGNS,143929.90,,,,,,06,,,,0.9,110,S*12
17:39:29.804 $GNGGA,143929.90,5945.34886908,N,03028.61660366,E,5,20,0.7,48.3070,M,15.8763,M,0.9,110*5F
17:39:29.911 $GNDTM,W84,,0.0,N,0.0,E,0.0,W84*71
17:39:29.911 $GNRMC,143930.00,A,5945.34886800,N,03028.61660218,E,0.003,200.3,101025,11.7,E,F,C*7C
17:39:29.914 $GNGNS,143930.00,5945.34886800,N,03028.61660218,E,FFFFNN,20,0.7,48.3076,15.8763,,,S*1F
17:39:29.914 $GPGNS,143930.00,,,,,,06,,,,1.0,110,S*09
17:39:29.914 $GLGNS,143930.00,,,,,,03,,,,1.0,110,S*10
17:39:29.914 $GAGNS,143930.00,,,,,,05,,,,1.0,110,S*1B
17:39:29.914 $GBGNS,143930.00,,,,,,06,,,,1.0,110,S*1B
17:39:29.914 $GNGGA,143930.00,5945.34886800,N,03028.61660218,E,5,20,0.7,48.3076,M,15.8763,M,1.0,110*51
17:39:29.914 $GNGLL,5945.34886800,N,03028.61660218,E,143930.00,A,D*7F
17:39:29.917 $GNGSA,M,3,15,23,13,19,24,02,,,,,,,1.5,0.7,1.4,1*30
17:39:29.917 $GNGSA,M,3,79,69,88,,,,,,,,,,1.5,0.7,1.4,2*39
17:39:29.917 $GNGSA,M,3,07,08,30,10,25,,,,,,,,1.5,0.7,1.4,3*33
17:39:29.917 $GNGSA,M,3,20,19,37,43,11,09,,,,,,,1.5,0.7,1.4,4*3E
17:39:29.945 $GPGSV,2,1,08,15,50,240,46,23,23,298,38,13,49,185,46,19,23,153,41,1*68
17:39:29.945 $GPGSV,2,2,08,24,32,282,42,02,16,037,35,22,72,114,26,17,38,130,21,1*6B
17:39:29.945 $GLGSV,2,1,05,79,61,258,46,69,55,242,47,78,60,064,26,88,19,101,18,2*7F
17:39:29.945 $GLGSV,2,2,05,68,20,191,26,2*4F
17:39:29.945 $GBGSV,3,1,09,05,16,148,38,20,36,231,50,19,38,295,44,37,82,184,42,4*76
17:39:29.945 $GBGSV,3,2,09,34,15,026,25,43,28,079,27,40,42,065,26,11,25,049,33,4*72
17:39:29.963 $GBGSV,3,3,09,09,15,102,23,4*45
17:39:29.963 $GAGSV,2,1,07,14,,,40,07,53,283,45,08,50,185,43,30,35,217,45,3*4D
17:39:29.963 $GAGSV,2,2,07,10,14,038,31,02,73,131,20,25,29,061,26,3*45
17:39:29.963 $GIGSV,1,1,01,02,43,149,36,6*47
17:39:29.963 $GNVTG,200.283,T,188.612,M,0.00343,N,0.00636,K,D*30
17:39:29.963 $GNGST,143930.00,0.68,1.74,1.41,76.6849,1.433,1.728,2.598*70
17:39:29.963 $GNGRS,143930.00,0,0.3,0.3,0.1,1.0,1.5,1.8,,,,,,,1,1*50
17:39:29.981 $GNGRS,143930.00,0,0.3,2.2,0.3,0.5,0.3,,,,,,,,1,4*70
17:39:29.981 $GNGRS,143930.00,0,0.4,7.2,,,1.1,,,,,,,,1,6*75
17:39:29.981 $GNGRS,143930.00,0,,0.3,,,0.8,,,,,,,,1,8*5F
17:39:29.981 $GNGRS,143930.00,0,,1.2,,,,,,,,,,,1,9*78
17:39:29.981 $GNGRS,143930.00,0,0.4,0.3,8.4,,,,,,,,,,2,1*7B
17:39:29.981 $GNGRS,143930.00,0,0.9,0.2,5.5,,,,,,,,,,2,3*79
17:39:29.981 $GNGRS,143930.00,0,,0.6,,,,,,,,,,,2,5*72
17:39:29.984 $GNGRS,143930.00,0,0.2,0.1,0.3,5.1,7.6,,,,,,,,3,7*72
17:39:29.984 $GNGRS,143930.00,0,0.1,0.1,0.1,0.6,2.6,,,,,,,,3,1*72
17:39:29.984 $GNGRS,143930.00,0,0.1,0.2,0.1,,0.4,,,,,,,,3,2*5A
17:39:29.984 $GNGRS,143930.00,0,0.1,0.1,0.2,1.3,0.4,,,,,,,,3,5*71
17:39:29.984 $GNGRS,143930.00,0,0.2,0.7,1.6,5.1,2.6,8.2,,,,,,,4,1*50
17:39:29.984 $GNGRS,143930.00,0,,,,,1.2,5.6,,,,,,,4,11*69
17:39:29.984 $GNGRS,143930.00,0,0.0,0.1,0.2,0.6,7.7,2.0,,,,,,,4,8*56
17:39:29.985 $GNGRS,143930.00,0,0.2,1.6,1.0,,,,,,,,,,4,3*70
17:39:29.985 $GNGRS,143930.00,0,0.1,0.2,1.3,1.4,,,,,,,,,4,5*58
17:39:29.985 $GNGRS,143930.00,0,0.1,0.3,,,,,,,,,,,4,6*5D
17:39:29.985 $GNZDA,143930.00,10,10,2025,,*71
17:39:29.985 $GNGBS,143930.00,0.7,0.8,1.4,19,0.0,0.9,6.2,4,1*77
17:39:29.992 #SATELLITEA,69,GPS,FINE,2387,484788000,0,0,18,24;GPS,TRUE,TRUE,8,2,0,16.3,37.2,0.000,0.000,13,0,49.9,185.2,0.000,0.000,15,0,50.6,240.8,0.000,0.000,17,0,38.6,130.6,0.000,0.000,19,0,23.2,153.3,0.000,0.000,22,0,72.4,114.3,0.000,0.000,23,0,23.7,298.6,0.000,0.000,24,0,32.7,282.5,0.000,0.000*10ff75ba
17:39:29.992 #SATELLITEA,69,GPS,FINE,2387,484788000,0,0,18,25;GLONASS,TRUE,TRUE,5,41+6,0,20.9,191.8,0.000,0.000,42+1,0,55.6,242.3,0.000,0.000,51-7,0,60.2,64.7,0.000,0.000,52,0,61.3,258.4,0.000,0.000,61+2,0,19.2,102.0,0.000,0.000*86e6747c
17:39:29.994 #SATELLITEA,69,GPS,FINE,2387,484788000,0,0,18,25;GALILEO,TRUE,TRUE,6,2,0,73.7,131.2,0.000,0.000,7,0,53.2,283.5,0.000,0.000,8,0,50.6,185.3,0.000,0.000,10,0,14.7,38.5,0.000,0.000,25,0,29.8,61.9,0.000,0.000,30,0,35.1,217.7,0.000,0.000*74aa8b55
17:39:30.002 #SATELLITEA,69,GPS,FINE,2387,484788000,0,0,18,25;BEIDOU,TRUE,TRUE,9,5,0,16.1,148.7,0.000,0.000,9,0,15.8,102.2,0.000,0.000,11,0,25.6,49.0,0.000,0.000,19,0,38.3,295.4,0.000,0.000,20,0,36.4,231.8,0.000,0.000,34,0,15.5,26.2,0.000,0.000,37,0,82.3,184.2,0.000,0.000,40,0,42.4,65.3,0.000,0.000,43,0,28.8,79.9,0.000,0.000*f7e27326
17:39:30.017 #SATELLITEA,69,GPS,FINE,2387,484788000,0,0,18,25;QZSS,TRUE,TRUE,0*e93e5b6b
17:39:30.017 #SATELLITEA,69,GPS,FINE,2387,484788000,0,0,18,25;SBAS,TRUE,TRUE,0*62a9d501
17:39:30.017 #SATELLITEA,69,GPS,FINE,2387,484788000,0,0,18,25;NAVIC,TRUE,TRUE,1,2,0,43.0,149.8,0.000,0.000*324a06b4
17:39:30.017 #SATSINFOA,69,GPS,FINE,2387,484788000,0,0,18,25;29,2,0,0,0,63,15,241,51,0,46,0,3,0,41,17,3,0,43,9,3,23,299,24,0,38,0,5,0,35,17,5,0,38,14,5,0,37,3,5,0,29,9,5,13,185,50,0,46,0,2,0,36,9,2,19,153,23,0,41,0,2,0,36,9,2,24,282,33,0,42,0,4,0,33,17,4,0,41,14,4,0,39,9,4,2,37,16,0,35,0,1,22,114,72,0,26,0,1,17,131,39,0,21,0,2,0,16,17,2,52,258,61,1,46,0,2,1,43,5,2,42,242,56,1,47,0,3,1,43,5,3,1,38,7,3,51,65,60,1,26,0,1,61,102,19,1,18,0,2,1,33,5,2,41,192,21,1,26,0,2,1,28,5,2,5,149,16,4,38,0,3,4,41,17,3,4,39,21,3,20,232,36,4,50,0,5,4,49,21,5,4,47,8,5,4,45,12,5,4,42,13,5,19,295,38,4,44,0,5,4,43,21,5,4,40,8,5,4,40,12,5,4,38,13,5,37,184,82,4,42,0,4,4,39,21,4,4,40,8,4,4,37,12,4,34,26,16,4,25,0,3,4,27,21,3,4,25,12,3,43,80,29,4,27,0,3,4,31,21,3,4,28,12,3,40,65,42,4,26,0,1,11,49,26,4,33,0,3,4,28,17,3,4,22,21,3,9,102,16,4,23,0,3,4,30,17,3,4,29,21,3,7,283,53,3,45,2,4,3,42,17,4,3,44,12,4,3,45,22,4,8,185,51,3,43,2,4,3,41,17,4,3,43,12,4,3,43,22,4,30,218,35,3,45,2,4,3,40,17,4,3,41,12,4,3,41,22,4,10,39,15,3,31,2,3,3,28,12,3,3,32,22,3,2,131,74,3,20,2,4,3,22,17,4,3,21,12,4,3,21,22,4,25,62,30,3,26,2,4,3,30,17,4,3,26,12,4,3,32,22,4,215,150,43,6,36,6,1*2a77de32
17:39:30.040 $GNGNS,143930.10,5945.34887048,N,03028.61660583,E,FFFFNN,20,0.7,48.3117,15.8763,,,S*18
17:39:30.049 $GPGNS,143930.10,,,,,,06,,,,1.1,110,S*09
17:39:30.049 $GLGNS,143930.10,,,,,,03,,,,1.1,110,S*10
17:39:30.049 $GAGNS,143930.10,,,,,,05,,,,1.1,110,S*1B
17:39:30.049 $GBGNS,143930.10,,,,,,06,,,,1.1,110,S*1B
17:39:30.049 $GNGGA,143930.10,5945.34887048,N,03028.61660583,E,5,20,0.7,48.3117,M,15.8763,M,1.1,110*57
17:39:30.077 $GNGNS,143930.20,5945.34886966,N,03028.61660444,E,FFFFNN,20,0.7,48.3066,15.8763,,,S*12
17:39:30.077 $GPGNS,143930.20,,,,,,06,,,,1.2,110,S*09
17:39:30.093 $GLGNS,143930.20,,,,,,03,,,,1.2,110,S*10
17:39:30.093 $GAGNS,143930.20,,,,,,05,,,,1.2,110,S*1B
17:39:30.093 $GBGNS,143930.20,,,,,,06,,,,1.2,110,S*1B
17:39:30.093 $GNGGA,143930.20,5945.34886966,N,03028.61660444,E,5,20,0.7,48.3066,M,15.8763,M,1.2,110*5E
17:39:30.211 $GNGNS,143930.30,5945.34891763,N,03028.61672285,E,FFFFNN,20,0.7,48.0381,15.8763,,,S*1F
17:39:30.211 $GPGNS,143930.30,,,,,,06,,,,1.3,110,S*09
17:39:30.214 $GLGNS,143930.30,,,,,,03,,,,1.3,110,S*10
17:39:30.214 $GAGNS,143930.30,,,,,,05,,,,1.3,110,S*1B
17:39:30.214 $GBGNS,143930.30,,,,,,06,,,,1.3,110,S*1B
17:39:30.214 $GNGGA,143930.30,5945.34891763,N,03028.61672285,E,5,20,0.7,48.0381,M,15.8763,M,1.3,110*52
17:39:30.294 $GNGNS,143930.40,5945.34891672,N,03028.61672285,E,FFFFNN,20,0.7,48.0394,15.8763,,,S*1D
17:39:30.294 $GPGNS,143930.40,,,,,,06,,,,1.4,110,S*09
17:39:30.298 $GLGNS,143930.40,,,,,,03,,,,1.4,110,S*10
17:39:30.298 $GAGNS,143930.40,,,,,,05,,,,1.4,110,S*1B
17:39:30.298 $GBGNS,143930.40,,,,,,06,,,,1.4,110,S*1B
17:39:30.298 $GNGGA,143930.40,5945.34891672,N,03028.61672285,E,5,20,0.7,48.0394,M,15.8763,M,1.4,110*57
17:39:30.381 $GNGNS,143930.50,5945.34891778,N,03028.61672811,E,FFFFNN,20,0.7,48.0346,15.8763,,,S*1F
17:39:30.381 $GPGNS,143930.50,,,,,,06,,,,1.5,110,S*09
17:39:30.397 $GLGNS,143930.50,,,,,,03,,,,1.5,110,S*10
17:39:30.397 $GAGNS,143930.50,,,,,,05,,,,1.5,110,S*1B
17:39:30.397 $GBGNS,143930.50,,,,,,06,,,,1.5,110,S*1B
17:39:30.397 $GNGGA,143930.50,5945.34891778,N,03028.61672811,E,5,20,0.7,48.0346,M,15.8763,M,1.5,110*54
17:39:30.497 $GNGNS,143930.60,5945.34891753,N,03028.61672285,E,FFFFNN,20,0.7,48.0409,15.8763,,,S*1E
17:39:30.497 $GPGNS,143930.60,,,,,,06,,,,0.6,110,S*08
17:39:30.499 $GLGNS,143930.60,,,,,,03,,,,0.6,110,S*11
17:39:30.499 $GAGNS,143930.60,,,,,,05,,,,0.6,110,S*1A
17:39:30.499 $GBGNS,143930.60,,,,,,06,,,,0.6,110,S*1A
17:39:30.499 $GNGGA,143930.60,5945.34891753,N,03028.61672285,E,5,20,0.7,48.0409,M,15.8763,M,0.6,110*57
17:39:30.600 $GNGNS,143930.70,5945.34891733,N,03028.61672223,E,FFFFNN,20,0.7,48.0385,15.8763,,,S*16
17:39:30.600 $GPGNS,143930.70,,,,,,06,,,,0.7,110,S*08
17:39:30.601 $GLGNS,143930.70,,,,,,03,,,,0.7,110,S*11
17:39:30.601 $GAGNS,143930.70,,,,,,05,,,,0.7,110,S*1A
17:39:30.601 $GBGNS,143930.70,,,,,,06,,,,0.7,110,S*1A
17:39:30.601 $GNGGA,143930.70,5945.34891733,N,03028.61672223,E,5,20,0.7,48.0385,M,15.8763,M,0.7,110*5E
17:39:30.706 $GNGNS,143930.80,5945.34891807,N,03028.61672249,E,FFFFNN,20,0.7,48.0374,15.8763,,,S*13
17:39:30.706 $GPGNS,143930.80,,,,,,06,,,,0.8,110,S*08
17:39:30.709 $GLGNS,143930.80,,,,,,03,,,,0.8,110,S*11
17:39:30.709 $GAGNS,143930.80,,,,,,05,,,,0.8,110,S*1A
17:39:30.709 $GBGNS,143930.80,,,,,,06,,,,0.8,110,S*1A
17:39:30.709 $GNGGA,143930.80,5945.34891807,N,03028.61672249,E,5,20,0.7,48.0374,M,15.8763,M,0.8,110*54
17:39:30.812 $GNGNS,143930.90,5945.34891764,N,03028.61672476,E,FFFFNN,20,0.7,48.0415,15.8763,,,S*12
17:39:30.812 $GPGNS,143930.90,,,,,,06,,,,0.9,110,S*08
17:39:30.813 $GLGNS,143930.90,,,,,,03,,,,0.9,110,S*11
17:39:30.813 $GAGNS,143930.90,,,,,,05,,,,0.9,110,S*1A
17:39:30.813 $GBGNS,143930.90,,,,,,06,,,,0.9,110,S*1A
17:39:30.813 $GNGGA,143930.90,5945.34891764,N,03028.61672476,E,5,20,0.7,48.0415,M,15.8763,M,0.9,110*54
17:39:30.901 $GNDTM,W84,,0.0,N,0.0,E,0.0,W84*71
17:39:30.901 $GNRMC,143931.00,A,5945.34891604,N,03028.61672628,E,0.006,209.4,101025,11.7,E,F,C*7E
17:39:30.920 $GNGNS,143931.00,5945.34891604,N,03028.61672628,E,FFFFNN,20,0.7,48.0376,15.8763,,,S*16
17:39:30.920 $GPGNS,143931.00,,,,,,06,,,,1.0,110,S*08
17:39:30.920 $GLGNS,143931.00,,,,,,03,,,,1.0,110,S*11
17:39:30.920 $GAGNS,143931.00,,,,,,05,,,,1.0,110,S*1A
17:39:30.920 $GBGNS,143931.00,,,,,,06,,,,1.0,110,S*1A
17:39:30.920 $GNGGA,143931.00,5945.34891604,N,03028.61672628,E,5,20,0.7,48.0376,M,15.8763,M,1.0,110*58
17:39:30.920 $GNGLL,5945.34891604,N,03028.61672628,E,143931.00,A,D*76
17:39:30.924 $GNGSA,M,3,15,23,13,19,24,02,,,,,,,1.5,0.7,1.4,1*30
17:39:30.924 $GNGSA,M,3,79,69,88,,,,,,,,,,1.5,0.7,1.4,2*39
17:39:30.924 $GNGSA,M,3,07,08,30,10,25,,,,,,,,1.5,0.7,1.4,3*33
17:39:30.924 $GNGSA,M,3,20,19,37,43,11,09,,,,,,,1.5,0.7,1.4,4*3E
17:39:30.924 $GPGSV,2,1,08,15,50,240,45,23,23,298,38,13,49,185,46,19,23,153,41,1*6B
17:39:30.924 $GPGSV,2,2,08,24,32,282,42,02,16,037,35,22,72,114,25,17,38,130,22,1*6B
17:39:30.929 $GLGSV,2,1,05,79,61,258,46,69,55,242,47,78,60,064,25,88,19,101,17,2*73
17:39:30.929 $GLGSV,2,2,05,68,20,191,27,2*4E
17:39:30.929 $GBGSV,3,1,09,05,16,148,38,20,36,231,50,19,38,295,44,37,82,184,42,4*76
17:39:30.929 $GBGSV,3,2,09,34,15,026,25,43,28,079,27,40,42,065,26,11,25,049,33,4*72
17:39:30.929 $GBGSV,3,3,09,09,15,102,22,4*44
17:39:30.929 $GAGSV,2,1,07,14,,,40,07,53,283,45,08,50,185,43,30,35,217,45,3*4D
17:39:30.952 $GAGSV,2,2,07,10,14,038,32,02,73,131,20,25,29,061,27,3*47
17:39:30.952 $GIGSV,1,1,01,02,43,149,35,6*44
17:39:30.952 $GNVTG,209.406,T,197.733,M,0.00635,N,0.01176,K,D*38
17:39:30.952 $GNGST,143931.00,0.67,1.73,1.41,77.3229,1.427,1.715,2.570*7C
17:39:30.952 $GNGRS,143931.00,0,0.3,0.3,0.2,1.0,1.7,5.9,,,,,,,1,1*55
17:39:30.952 $GNGRS,143931.00,0,0.2,,0.3,0.4,0.3,,,,,,,,1,4*5F
17:39:30.952 $GNGRS,143931.00,0,0.6,7.2,,,3.5,,,,,,,,1,6*70
17:39:30.967 $GNGRS,143931.00,0,,0.4,,,0.9,,,,,,,,1,8*58
17:39:30.967 $GNGRS,143931.00,0,,0.4,,,,,,,,,,,1,9*7E
17:39:30.967 $GNGRS,143931.00,0,0.5,0.3,8.4,,,,,,,,,,2,1*7B
17:39:30.967 $GNGRS,143931.00,0,0.5,0.4,4.9,,,,,,,,,,2,3*7F
17:39:30.967 $GNGRS,143931.00,0,,0.6,,,,,,,,,,,2,5*73
17:39:30.967 $GNGRS,143931.00,0,0.3,0.1,0.4,5.5,7.4,,,,,,,,3,7*73
17:39:30.967 $GNGRS,143931.00,0,0.1,0.1,0.2,0.5,2.3,,,,,,,,3,1*76
17:39:30.982 $GNGRS,143931.00,0,0.1,0.2,0.1,,0.6,,,,,,,,3,2*59
17:39:30.982 $GNGRS,143931.00,0,0.1,0.1,0.2,1.4,0.7,,,,,,,,3,5*74
17:39:30.982 $GNGRS,143931.00,0,0.2,0.8,1.1,2.5,3.3,8.2,,,,,,,4,1*5E
17:39:30.982 $GNGRS,143931.00,0,,,,,3.2,2.6,,,,,,,4,11*6D
17:39:30.982 $GNGRS,143931.00,0,0.0,0.1,0.2,0.6,7.8,3.2,,,,,,,4,8*5B
17:39:31.010 $GNGRS,143931.00,0,0.2,1.2,1.4,,,,,,,,,,4,3*71
17:39:31.010 $GNGRS,143931.00,0,0.1,0.3,1.0,1.1,,,,,,,,,4,5*5E
17:39:31.010 $GNGRS,143931.00,0,0.1,0.4,,,,,,,,,,,4,6*5B
17:39:31.010 $GNZDA,143931.00,10,10,2025,,*70
17:39:31.010 $GNGBS,143931.00,0.7,0.8,1.4,19,0.0,1.0,6.2,4,1*7E
